permit_number,issue_date,full_address,source_file,latitude,longitude,geocoded_address,geocode_status
BLDC-2024-030960,8/1/2024,"45540 DULLES EASTERN PLZ, STERLING, VA 20166",permits_2024_08.pdf,39.025007,-77.42446790000001,"45540 Dulles Eastern Plaza, Sterling, VA 20166, USA",SUCCESS
BLDR-2024-003002,8/1/2024,"15834 HAMILTON STATION RD, WATERFORD, VA 20197",permits_2024_08.pdf,39.17658309999999,-77.61779059999999,"15834 Hamilton Station Rd, Waterford, VA 20197, USA",SUCCESS
BLDR-2024-013473,8/1/2024,"15968 LIMESTONE SCHOOL RD, LEESBURG, VA 20176",permits_2024_08.pdf,39.171705,-77.53237949999999,"15968 Limestone School Rd, Leesburg, VA 20176, USA",SUCCESS
BLDR-2024-017961,8/1/2024,"37691 GROVERS MILL LN, PURCELLVILLE, VA 20132",permits_2024_08.pdf,39.2018115,-77.7002437,"37691 Grovers Mill Ln, Purcellville, VA 20132, USA",SUCCESS
BLDR-2024-024122,8/1/2024,"14411 MELROSE SPRING LN, LEESBURG, VA 20176",permits_2024_08.pdf,39.2179656,-77.57230659999999,"14411 Melrose Spring Ln, Leesburg, VA 20176, USA",SUCCESS
BLDR-2024-025532,8/1/2024,"19203 LINCOLN RD, PURCELLVILLE, VA 20132",permits_2024_08.pdf,39.087066,-77.6967908,"19203 Lincoln Rd, Purcellville, VA 20132, USA",SUCCESS
BLDR-2024-026483,8/1/2024,"40793 NORTHERN WILLOW CT, ALDIE, VA 20105",permits_2024_08.pdf,38.9412815,-77.592007,"40793 Northern Willow Ct, Stone Ridge, VA 20105, USA",SUCCESS
BLDR-2024-026547,8/1/2024,"42713 NEWCOMER TER, CHANTILLY, VA 20152",permits_2024_08.pdf,38.9191942,-77.5257252,"42713 Newcomer Terrace, South Riding, VA 20152, USA",SUCCESS
BLDR-2024-026900,8/1/2024,"41690 DILLINGER MILL PL, ALDIE, VA 20105",permits_2024_08.pdf,38.9400771,-77.5609076,"41690 Dillinger Mill Pl, Aldie, VA 20105, USA",SUCCESS
BLDR-2024-026981,8/1/2024,"24756 STONEHILL FARM CT, ALDIE, VA 20105",permits_2024_08.pdf,38.93272899999999,-77.593642,"24756 Stonehill Farm Ct, Stone Ridge, VA 20105, USA",SUCCESS
BLDR-2024-027060,8/1/2024,"15706 VIVIAN DR, WATERFORD, VA 20197",permits_2024_08.pdf,39.182793,-77.633883,"15706 Vivian Dr, Waterford, VA 20197, USA",SUCCESS
BLDR-2024-027844,8/1/2024,"20716 RAINSBORO DR, ASHBURN, VA 20147",permits_2024_08.pdf,39.0432626,-77.4681581,"20716 Rainsboro Dr, Ashburn, VA 20147, USA",SUCCESS
BLDR-2024-027937,8/1/2024,"42009 SPRUCE POINT CT, ASHBURN, VA 20148",permits_2024_08.pdf,38.9868673,-77.5493922,"42009 Spruce Point Ct, Brambleton, VA 20148, USA",SUCCESS
BLDR-2024-028499,8/1/2024,"19923 SMITH CIR, ASHBURN, VA 20147",permits_2024_08.pdf,39.0650661,-77.4545136,"19923 Smith Cir, Ashburn, VA 20147, USA",SUCCESS
BLDR-2024-029474,8/1/2024,"13302 MILLTOWN RD, LOVETTSVILLE, VA 20180",permits_2024_08.pdf,39.2493414,-77.6206648,"13302 Milltown Rd, Lovettsville, VA 20180, USA",SUCCESS
BLDR-2024-031154,8/1/2024,"19135 ZACHARY LN, LEESBURG, VA 20176",permits_2024_08.pdf,39.0864117,-77.4925803,"19135 Zachary Ln, Leesburg, VA 20176, USA",SUCCESS
BLDR-2024-031589,8/1/2024,"26592 ORDESSIE DR, CENTREVILLE, VA 20120",permits_2024_08.pdf,38.8809967,-77.52066889999999,"26592 Ordessie Dr, Centreville, VA 20120, USA",OUT_OF_BOUNDS
BLDR-2024-036374,8/1/2024,"46781 BACKWATER DR, STERLING, VA 20164",permits_2024_08.pdf,39.0236916,-77.3808216,"46781 Backwater Dr, Sterling, VA 20164, USA",SUCCESS
BLDR-2024-036408,8/1/2024,"24915 SAWTOOTH CT, ALDIE, VA 20105",permits_2024_08.pdf,38.9286618,-77.5481009,"24915 Sawtooth Ct, Stone Ridge, VA 20105, USA",SUCCESS
BLDR-2024-036640,8/1/2024,"26144 WENDELL ST, CHANTILLY, VA 20152",permits_2024_08.pdf,38.8938917,-77.5076505,"26144 Wendell St, Chantilly, VA 20152, USA",OUT_OF_BOUNDS
BLDR-2024-037273,8/1/2024,"7 TYLER LN, STERLING, VA 20165",permits_2024_08.pdf,39.0479891,-77.4156643,"7 Tyler Ln, Sterling, VA 20165, USA",SUCCESS
BLDR-2024-037427,8/1/2024,"23408 SWEET MAGNOLIA CT, ALDIE, VA 20105",permits_2024_08.pdf,38.970299,-77.565141,"23408 Sweet Magnolia Court, Aldie, VA 20105, USA",SUCCESS
BLDR-2024-037474,8/1/2024,"42459 PATRICK WAYNE SQ, ASHBURN, VA 20148",permits_2024_08.pdf,38.9712693,-77.5337849,"42459 Patrick Wayne Square, Broadlands, VA 20148, USA",SUCCESS
BLDR-2024-037683,8/1/2024,"43275 LECROY CIR, LEESBURG, VA 20176",permits_2024_08.pdf,39.0836674,-77.5035256,"43275 Lecroy Cir, Leesburg, VA 20176, USA",SUCCESS
BLDR-2024-037812,8/1/2024,"45850 OAK BRANCH LN, STERLING, VA 20164",permits_2024_08.pdf,39.00830010000001,-77.4141339,"45850 Oak Branch Ln, Sterling, VA 20164, USA",SUCCESS
BLDR-2024-037853,8/1/2024,"21126 ADIRONDACK TER, ASHBURN, VA 20147",permits_2024_08.pdf,39.0317336,-77.4732523,"21126 Adirondack Terrace, Ashburn, VA 20147, USA",SUCCESS
BLDR-2024-039963,8/1/2024,"20328 OCEAN FOREST CT, ASHBURN, VA 20147",permits_2024_08.pdf,39.0537358,-77.4962268,"20328 Ocean Forest Ct, Ashburn, VA 20147, USA",SUCCESS
BLDR-2024-013566,8/2/2024,"34898 WILLIAMS GAP RD, ROUND HILL, VA 20141",permits_2024_08.pdf,39.141408,-77.799409,"34898 Williams Gap Rd, Round Hill, VA 20141, USA",SUCCESS
BLDR-2024-016640,8/2/2024,"22214 WOODWINDS DR, LEESBURG, VA 20175",permits_2024_08.pdf,39.0084724,-77.5956619,"22214 Woodwinds Dr, Leesburg, VA 20175, USA",SUCCESS
BLDR-2024-025982,8/2/2024,"39169 ALDIE RD, ALDIE, VA 20105",permits_2024_08.pdf,38.979176,-77.64925199999999,"39169 Aldie Rd, Aldie, VA 20105, USA",SUCCESS
BLDR-2024-026116,8/2/2024,"42029 MISTFLOWER CIR, ASHBURN, VA 20148",permits_2024_08.pdf,38.9973283,-77.54786899999999,"42029 Mistflower Cir, Broadlands, VA 20148, USA",SUCCESS
BLDR-2024-026784,8/2/2024,"42618 BLACK ANGUS DR, ASHBURN, VA 20148",permits_2024_08.pdf,39.0148219,-77.528094,"42618 Black Angus Dr, Ashburn, VA 20148, USA",SUCCESS
BLDR-2024-026849,8/2/2024,"41386 RASPBERRY DR, LEESBURG, VA 20176",permits_2024_08.pdf,39.1653395,-77.55865059999999,"41386 Raspberry Dr, Leesburg, VA 20176, USA",SUCCESS
BLDR-2024-028025,8/2/2024,"25630 TAYLOR CRESCENT DR, CHANTILLY, VA 20152",permits_2024_08.pdf,38.9085943,-77.496506,"25630 Taylor Cres Dr, Chantilly, VA 20152, USA",SUCCESS
BLDR-2024-028406,8/2/2024,"41082 FRESHFIELDS CT, ALDIE, VA 20105",permits_2024_08.pdf,38.940867,-77.58260059999999,"41082 Freshfields Ct, Stone Ridge, VA 20105, USA",SUCCESS
BLDR-2024-028689,8/2/2024,"42944 VAL AOSTA DR, ASHBURN, VA 20148",permits_2024_08.pdf,38.9982469,-77.5155327,"42944 Val Aosta Dr, Ashburn, VA 20148, USA",SUCCESS
BLDR-2024-029842,8/2/2024,"22058 WATER RUN CT, ASHBURN, VA 20148",permits_2024_08.pdf,39.0059021,-77.5053071,"22058 Water Run Ct, Ashburn, VA 20148, USA",SUCCESS
BLDR-2024-030550,8/2/2024,"42477 LENNOX CT, CHANTILLY, VA 20152",permits_2024_08.pdf,38.9081394,-77.5337265,"42477 Lennox Ct, South Riding, VA 20152, USA",SUCCESS
BLDR-2024-031007,8/2/2024,"41232 TYNEDALE CT, ASHBURN, VA 20148",permits_2024_08.pdf,38.9766843,-77.5761823,"41232 Tynedale Ct, Ashburn, VA 20148, USA",SUCCESS
BLDR-2024-031232,8/2/2024,"23680 EVERETT VALLEY DR, ALDIE, VA 20105",permits_2024_08.pdf,38.96195,-77.5827384,"23680 Everett Vly Dr, Stone Ridge, VA 20105, USA",SUCCESS
BLDR-2024-033858,8/2/2024,"41575 HEPATICA CT, ASHBURN, VA 20148",permits_2024_08.pdf,38.9628383,-77.56411609999999,"41575 Hepatica Ct, Ashburn, VA 20148, USA",SUCCESS
BLDR-2024-035357,8/2/2024,"22910 BENSON TER, STERLING, VA 20166",permits_2024_08.pdf,38.9821776,-77.4097051,"22910 Benson Terrace, Sterling, VA 20166, USA",SUCCESS
BLDR-2024-035601,8/2/2024,"20113 OLD LINE TER, ASHBURN, VA 20147",permits_2024_08.pdf,39.0600768,-77.5122591,"20113 Old Line Terrace, Ashburn, VA 20147, USA",SUCCESS
BLDR-2024-036613,8/2/2024,"19700 STANFORD HALL PL, ASHBURN, VA 20147",permits_2024_08.pdf,39.0707831,-77.4981955,"19700 Stanford Hall Pl, Ashburn, VA 20147, USA",SUCCESS
BLDR-2024-036638,8/2/2024,"21303 SWEET CLOVER PL, ASHBURN, VA 20147",permits_2024_08.pdf,39.0279307,-77.4942432,"21303 Sweet Clover Pl, Ashburn, VA 20147, USA",SUCCESS
BLDR-2024-038357,8/2/2024,"13622 SYLVAN BLUFF DR, LEESBURG, VA 20176",permits_2024_08.pdf,39.2369806,-77.50379509999999,"13622 Sylvan Bluff Dr, Leesburg, VA 20176, USA",SUCCESS
BLDR-2024-038829,8/2/2024,"15694 HILLSBORO RD, PURCELLVILLE, VA 20132",permits_2024_08.pdf,39.1826062,-77.7201224,"15694 Hillsboro Rd, Purcellville, VA 20132, USA",SUCCESS
BLDR-2024-038835,8/2/2024,"15694 HILLSBORO RD, PURCELLVILLE, VA 20132",permits_2024_08.pdf,39.1826062,-77.7201224,"15694 Hillsboro Rd, Purcellville, VA 20132, USA",SUCCESS
BLDR-2024-038957,8/2/2024,"43687 FROST CT, ASHBURN, VA 20147",permits_2024_08.pdf,39.0182525,-77.4898034,"43687 Frost Ct, Ashburn, VA 20147, USA",SUCCESS
BLDR-2024-040362,8/2/2024,"43445 POSTRAIL SQ, ASHBURN, VA 20147",permits_2024_08.pdf,39.0380601,-77.49909029999999,"43445 Postrail Square, Ashburn, VA 20147, USA",SUCCESS
BLDR-2024-040752,8/2/2024,"267 CHELMSFORD CT, STERLING, VA 20165",permits_2024_08.pdf,39.0481914,-77.3988038,"267 Chelmsford Ct, Sterling, VA 20165, USA",SUCCESS
BLDR-2024-040989,8/2/2024,"43206 SUMMERSWEET PL, ASHBURN, VA 20148",permits_2024_08.pdf,39.002235,-77.506579,"43206 Summersweet Pl, Ashburn, VA 20148, USA",SUCCESS
BLDC-2024-014636,8/4/2024,"24950 RIDING CENTER DR, CHANTILLY, VA 20152",permits_2024_08.pdf,38.9216149,-77.5262473,"24950 Riding Center Dr, Chantilly, VA 20152, USA",SUCCESS
BLDR-2024-032909,8/4/2024,"43942 ROCHELLE CT, ASHBURN, VA 20147",permits_2024_08.pdf,39.0501364,-77.4808381,"43942 Rochelle Ct, Ashburn, VA 20147, USA",SUCCESS
BLDR-2024-030824,8/5/2024,"25067 KINGSCOTE CT, CHANTILLY, VA 20152",permits_2024_08.pdf,38.9239364,-77.5394701,"25067 Kingscote Ct, Chantilly, VA 20152, USA",SUCCESS
BLDR-2024-031588,8/5/2024,"43436 ORSON ST, CHANTILLY, VA 20152",permits_2024_08.pdf,38.8927793,-77.50039360000001,"43436 Orson St, Chantilly, VA 20152, USA",OUT_OF_BOUNDS
BLDR-2024-032283,8/5/2024,"24899 QUIMBY OAKS PL, ALDIE, VA 20105",permits_2024_08.pdf,38.9290866,-77.57996,"24899 Quimby Oaks Pl, Aldie, VA 20105, USA",SUCCESS
BLDR-2024-033186,8/5/2024,"42606 HARRIS ST, CHANTILLY, VA 20152",permits_2024_08.pdf,38.913972,-77.52926939999999,"42606 Harris St, Chantilly, VA 20152, USA",SUCCESS
BLDR-2024-033722,8/5/2024,"17073 NEEDLES CT, LEESBURG, VA 20176",permits_2024_08.pdf,39.1440583,-77.5925522,"17073 Needles Ct, Leesburg, VA 20176, USA",SUCCESS
BLDR-2024-033936,8/5/2024,"17380 TRANQUILITY RD, PURCELLVILLE, VA 20132",permits_2024_08.pdf,39.1361603,-77.7357342,"17380 Tranquility Rd, Purcellville, VA 20132, USA",SUCCESS
BLDR-2024-034722,8/5/2024,"42155 GRISBY CT, CHANTILLY, VA 20152",permits_2024_08.pdf,38.88475589999999,-77.5454244,"42155 Grisby Ct, Chantilly, VA 20152, USA",OUT_OF_BOUNDS
BLDR-2024-034862,8/5/2024,"44294 SILKWORTH TER, ASHBURN, VA 20147",permits_2024_08.pdf,39.0357289,-77.46780629999999,"44294 Silkworth Terrace, Ashburn, VA 20147, USA",SUCCESS
BLDR-2024-035191,8/5/2024,"40777 NORTHERN WILLOW CT, ALDIE, VA 20105",permits_2024_08.pdf,38.940588,-77.5932179,"40777 Northern Willow Ct, Stone Ridge, VA 20105, USA",SUCCESS
BLDR-2024-035398,8/5/2024,"17865 RIDGEWOOD PL, ROUND HILL, VA 20141",permits_2024_08.pdf,39.1255949,-77.764217,"17865 Ridgewood Pl, Round Hill, VA 20141, USA",SUCCESS
BLDR-2024-035910,8/5/2024,"19155 SKYFIELD RIDGE PL, PURCELLVILLE, VA 20132",permits_2024_08.pdf,39.087796,-77.773753,"19155 Skyfield Ridge Pl, Purcellville, VA 20132, USA",SUCCESS
BLDR-2024-036520,8/5/2024,"22868 BUBBLING BROOK DR, ASHBURN, VA 20148",permits_2024_08.pdf,38.984273,-77.5489752,"22868 Bubbling Brook Dr, Brambleton, VA 20148, USA",SUCCESS
BLDR-2024-036818,8/5/2024,"20469 BROAD RUN DR, STERLING, VA 20165",permits_2024_08.pdf,39.0493119,-77.4309853,"20469 Broad Run Dr, Sterling, VA 20165, USA",SUCCESS
BLDR-2024-037231,8/5/2024,"21954 COLONIAL HILLS DR, ASHBURN, VA 20148",permits_2024_08.pdf,39.0077502,-77.55543290000001,"21954 Colonial Hills Dr, Ashburn, VA 20148, USA",SUCCESS
BLDR-2024-037694,8/5/2024,"20403 TILBERG ST, ASHBURN, VA 20147",permits_2024_08.pdf,39.0515827,-77.5116865,"20403 Tilberg St, Ashburn, VA 20147, USA",SUCCESS
BLDR-2024-038582,8/5/2024,"114 BICKEL CT, STERLING, VA 20165",permits_2024_08.pdf,39.04911269999999,-77.42221289999999,"114 Bickel Ct, Sterling, VA 20165, USA",SUCCESS
BLDR-2024-038698,8/5/2024,"43542 RIVERPOINT DR, LEESBURG, VA 20176",permits_2024_08.pdf,39.0871966,-77.48795059999999,"43542 Riverpoint Dr, Leesburg, VA 20176, USA",SUCCESS
BLDR-2024-039072,8/5/2024,"42465 NICKENS PL, ASHBURN, VA 20148",permits_2024_08.pdf,38.9732742,-77.5331453,"42465 Nickens Pl, Ashburn, VA 20148, USA",SUCCESS
BLDR-2024-039079,8/5/2024,"41929 POSSUMHAW TER, ALDIE, VA 20105",permits_2024_08.pdf,38.9223911,-77.55338239999999,"41929 Possumhaw Terrace, Aldie, VA 20105, USA",SUCCESS
BLDR-2024-039834,8/5/2024,"21373 GLEBE VIEW DR, ASHBURN, VA 20148",permits_2024_08.pdf,39.0269601,-77.5247085,"21373 Glebe View Dr, Broadlands, VA 20148, USA",SUCCESS
BLDR-2024-039977,8/5/2024,"42775 WILMAR SQ, ASHBURN, VA 20148",permits_2024_08.pdf,39.0001462,-77.52206679999999,"42775 Wilmar Square, Brambleton, VA 20148, USA",SUCCESS
BLDR-2024-040211,8/5/2024,"43655 KENAI CT, CHANTILLY, VA 20152",permits_2024_08.pdf,38.8920914,-77.49278129999999,"43655 Kenai Ct, Chantilly, VA 20152, USA",OUT_OF_BOUNDS
BLDR-2024-040489,8/5/2024,"39042 OLD STAGE PL, WATERFORD, VA 20197",permits_2024_08.pdf,39.1754225,-77.6546534,"39042 Old Stage Pl, Waterford, VA 20197, USA",SUCCESS
BLDR-2024-040598,8/5/2024,"23390 TRADEWIND DR, ASHBURN, VA 20148",permits_2024_08.pdf,38.96838229999999,-77.54470979999999,"23390 Tradewind Dr, Ashburn, VA 20148, USA",SUCCESS
BLDC-2023-016108,8/6/2024,"42050 COCHRAN MILL RD, LEESBURG, VA 20175",permits_2024_08.pdf,39.0761329,-77.5271774,"42050 Cochran Mill Rd, Leesburg, VA 20175, USA",SUCCESS
BLDC-2024-034535,8/6/2024,"44062 FINCASTLE DR, ASHBURN, VA 20147",permits_2024_08.pdf,39.0514479,-77.4778659,"Main Building, 44062 Fincastle Dr, Ashburn, VA 20147, USA",SUCCESS
BLDR-2024-003785,8/6/2024,"24971 DAHLIA MANOR PL, ALDIE, VA 20105",permits_2024_08.pdf,38.9270755,-77.59975870000001,"24971 Dahlia Manor Pl, Aldie, VA 20105, USA",SUCCESS
BLDR-2024-021213,8/6/2024,"24975 BELCOURT CASTLE DR, CHANTILLY, VA 20152",permits_2024_08.pdf,38.925403,-77.5390663,"24975 Belcourt Castle Dr, Chantilly, VA 20152, USA",SUCCESS
BLDR-2024-024779,8/6/2024,"20393 VOLLEY TER, ASHBURN, VA 20147",permits_2024_08.pdf,39.0520552,-77.48108429999999,"20393 Volley Terrace, Ashburn, VA 20147, USA",SUCCESS
BLDR-2024-025877,8/6/2024,"23786 KILKERRAN DR, ALDIE, VA 20105",permits_2024_08.pdf,38.9595183,-77.59339489999999,"23786 Kilkerran Dr, Aldie, VA 20105, USA",SUCCESS
BLDR-2024-026944,8/6/2024,"12414 MOUNTAIN RD, LOVETTSVILLE, VA 20180",permits_2024_08.pdf,39.2716736,-77.6889432,"12414 Mountain Rd, Lovettsville, VA 20180, USA",SUCCESS
BLDR-2024-028188,8/6/2024,"43403 TURNBERRY ISLE CT, LEESBURG, VA 20176",permits_2024_08.pdf,39.1021773,-77.4986854,"43403 Turnberry Isle Ct, Leesburg, VA 20176, USA",SUCCESS
BLDR-2024-029448,8/6/2024,"16123 TURNING LEAF LN, LEESBURG, VA 20176",permits_2024_08.pdf,39.1702054,-77.56256060000001,"16123 Turning Leaf Ln, Leesburg, VA 20176, USA",SUCCESS
BLDR-2024-030368,8/6/2024,"40486 WINDYHILL FARMS DR, ALDIE, VA 20105",permits_2024_08.pdf,38.960714,-77.60657900000001,"40486 Windyhill Farms Dr, Aldie, VA 20105, USA",SUCCESS
BLDR-2024-030675,8/6/2024,"43437 ORSON ST, CHANTILLY, VA 20152",permits_2024_08.pdf,38.8923519,-77.500372,"43437 Orson St, South Riding, VA 20152, USA",OUT_OF_BOUNDS
BLDR-2024-031551,8/6/2024,"43749 RALEIGH PL, ASHBURN, VA 20147",permits_2024_08.pdf,39.0498298,-77.48594159999999,"43749 Raleigh Pl, Ashburn, VA 20147, USA",SUCCESS
BLDR-2024-032152,8/6/2024,"18841 BLACK OAK RD, PURCELLVILLE, VA 20132",permits_2024_08.pdf,39.0986157,-77.7576102,"18841 Black Oak Rd, Purcellville, VA 20132, USA",SUCCESS
BLDR-2024-032871,8/6/2024,"24815 YELLOW POPLAR PL, ALDIE, VA 20105",permits_2024_08.pdf,38.931928,-77.576915,"24815 Yellow Poplar Pl, Stone Ridge, VA 20105, USA",SUCCESS
BLDR-2024-033430,8/6/2024,"38643 PIGGOTT BOTTOM RD, HAMILTON, VA 20158",permits_2024_08.pdf,39.1549509,-77.665278,"38643 Piggott Bottom Rd, Hamilton, VA 20158, USA",SUCCESS
BLDR-2024-033922,8/6/2024,"12892 PICNIC WOODS RD, LOVETTSVILLE, VA 20180",permits_2024_08.pdf,39.2604054,-77.6746428,"12892 Picnic Woods Rd, Lovettsville, VA 20180, USA",SUCCESS
BLDR-2024-034913,8/6/2024,"41346 RASPBERRY DR, LEESBURG, VA 20176",permits_2024_08.pdf,39.1669664,-77.556127,"41346 Raspberry Dr, Leesburg, VA 20176, USA",SUCCESS
BLDR-2024-034988,8/6/2024,"21120 MIDDAY LN, STERLING, VA 20164",permits_2024_08.pdf,39.0109796,-77.4140075,"21120 Midday Ln, Sterling, VA 20164, USA",SUCCESS
BLDR-2024-035757,8/6/2024,"25940 CAMERON WALK PL, ALDIE, VA 20105",permits_2024_08.pdf,38.8959571,-77.5824548,"25940 Cameron Walk Pl, Aldie, VA 20105, USA",OUT_OF_BOUNDS
BLDR-2024-035763,8/6/2024,"106 WILSON AVE NW, LEESBURG, VA 20176",permits_2024_08.pdf,39.121344,-77.5763624,"106 Wilson Ave NW, Leesburg, VA 20176, USA",SUCCESS
BLDR-2024-036302,8/6/2024,"818 ELLERSLIE CT SE, LEESBURG, VA 20175",permits_2024_08.pdf,39.082749,-77.5380945,"818 Ellerslie Ct SE, Leesburg, VA 20175, USA",SUCCESS
BLDR-2024-037123,8/6/2024,"42572 INVERGORDON TER, STERLING, VA 20166",permits_2024_08.pdf,38.9490405,-77.53092649999999,"42572 Invergordon Ter, Sterling, VA 20166, USA",SUCCESS
BLDR-2024-037128,8/6/2024,"42570 INVERGORDON TER, STERLING, VA 20166",permits_2024_08.pdf,38.9490579,-77.530958,"42570 Invergordon Ter, Sterling, VA 20166, USA",SUCCESS
BLDR-2024-037131,8/6/2024,"42566 INVERGORDON TER, STERLING, VA 20166",permits_2024_08.pdf,38.9491065,-77.5310467,"42566 Invergordon Ter, Sterling, VA 20166, USA",SUCCESS
BLDR-2024-037133,8/6/2024,"42562 INVERGORDON TER, STERLING, VA 20166",permits_2024_08.pdf,38.949138,-77.531104,"42562 Invergordon Ter, Sterling, VA 20166, USA",SUCCESS
BLDR-2024-037135,8/6/2024,"42558 INVERGORDON TER, STERLING, VA 20166",permits_2024_08.pdf,38.9491746,-77.53117170000002,"42558 Invergordon Ter, Sterling, VA 20166, USA",SUCCESS
BLDR-2024-037136,8/6/2024,"42554 INVERGORDON TER, STERLING, VA 20166",permits_2024_08.pdf,38.9492185,-77.53125399999999,"42554 Invergordon Ter, Sterling, VA 20166, USA",SUCCESS
BLDR-2024-037166,8/6/2024,"20235 HIDDEN CREEK CT, ASHBURN, VA 20147",permits_2024_08.pdf,39.0562645,-77.49042949999999,"20235 Hidden Creek Ct, Ashburn, VA 20147, USA",SUCCESS
BLDR-2024-037489,8/6/2024,"35471 TROON CT, ROUND HILL, VA 20141",permits_2024_08.pdf,39.1224685,-77.77727999999999,"35471 Troon Ct, Round Hill, VA 20141, USA",SUCCESS
BLDR-2024-039331,8/6/2024,"43624 HABITAT CIR, LEESBURG, VA 20176",permits_2024_08.pdf,39.0980217,-77.49064179999999,"43624 Habitat Cir, Leesburg, VA 20176, USA",SUCCESS
BLDR-2024-039840,8/6/2024,"13374 HARPERS FERRY RD, PURCELLVILLE, VA 20132",permits_2024_08.pdf,39.245463,-77.7230293,"13374 Harpers Ferry Rd, Purcellville, VA 20132, USA",SUCCESS
BLDR-2024-040784,8/6/2024,"47717 SANDBANK SQ, STERLING, VA 20165",permits_2024_08.pdf,39.040216,-77.3514054,"47717 Sandbank Square, Sterling, VA 20165, USA",SUCCESS
BLDR-2024-041050,8/6/2024,"22320 FOUNDATION DR, ASHBURN, VA 20148",permits_2024_08.pdf,38.998795,-77.4984068,"22320 Foundation Dr, Ashburn, VA 20148, USA",SUCCESS
BLDR-2024-041495,8/6/2024,"47724 BOWLINE TER, STERLING, VA 20165",permits_2024_08.pdf,39.042947,-77.347447,"47724 Bowline Terrace, Sterling, VA 20165, USA",SUCCESS
BLDC-2024-032453,8/7/2024,"105 E MARKET ST Unit: E, LEESBURG, VA 20176",permits_2024_08.pdf,39.114496,-77.56277299999999,"105 E Market St E, Leesburg, VA 20176, USA",SUCCESS
BLDC-2024-034248,8/7/2024,"821 BATTLEFIELD PKWY NE, LEESBURG, VA 20176",permits_2024_08.pdf,39.1232806,-77.5349506,"821 Battlefield Pkwy NE, Leesburg, VA 20176, USA",SUCCESS
BLDR-2024-029849,8/7/2024,"24359 INDIAN BEAN CT, ALDIE, VA 20105",permits_2024_08.pdf,38.9437066,-77.5868855,"24359 Indian Bean Ct, Stone Ridge, VA 20105, USA",SUCCESS
BLDR-2024-030373,8/7/2024,"43763 CARSON CT, ASHBURN, VA 20147",permits_2024_08.pdf,39.0199493,-77.4866534,"43763 Carson Ct, Ashburn, VA 20147, USA",SUCCESS
BLDR-2024-033014,8/7/2024,"39255 CROOKED BRIDGE LN, LEESBURG, VA 20175",permits_2024_08.pdf,39.0347441,-77.6464642,"39255 Crooked Bridge Ln, Leesburg, VA 20175, USA",SUCCESS
BLDR-2024-035543,8/7/2024,"41541 DOGWOOD PARK CIR, ALDIE, VA 20105",permits_2024_08.pdf,38.9690924,-77.5663436,"41541 Dogwood Park Circle, Aldie, VA 20105, USA",SUCCESS
BLDR-2024-036546,8/7/2024,"21430 PLYMOUTH PL, ASHBURN, VA 20147",permits_2024_08.pdf,39.0245406,-77.49515869999999,"21430 Plymouth Pl, Ashburn, VA 20147, USA",SUCCESS
BLDR-2024-036691,8/7/2024,"23044 MINERVA DR, ASHBURN, VA 20148",permits_2024_08.pdf,38.9778568,-77.5238162,"23044 Minerva Dr, Ashburn, VA 20148, USA",SUCCESS
BLDR-2024-037159,8/7/2024,"22175 BREITLING TER, ASHBURN, VA 20148",permits_2024_08.pdf,39.0034914,-77.5277349,"22175 Breitling Terrace, Broadlands, VA 20148, USA",SUCCESS
BLDR-2024-037199,8/7/2024,"40949 FRANKLINIA PL, ALDIE, VA 20105",permits_2024_08.pdf,38.9445981,-77.5856065,"40949 Franklinia Pl, Stone Ridge, VA 20105, USA",SUCCESS
BLDR-2024-037402,8/7/2024,"249 MARKWOOD DR, STERLING, VA 20165",permits_2024_08.pdf,39.04209230000001,-77.408204,"249 Markwood Dr, Sterling, VA 20165, USA",SUCCESS
BLDR-2024-038623,8/7/2024,"20371 BOWFONDS ST, ASHBURN, VA 20147",permits_2024_08.pdf,39.0518542,-77.5144437,"20371 Bowfonds St, Ashburn, VA 20147, USA",SUCCESS
BLDR-2024-038628,8/7/2024,"20541 TIDEWATER CT, STERLING, VA 20165",permits_2024_08.pdf,39.0471155,-77.3533999,"20541 Tidewater Ct, Sterling, VA 20165, USA",SUCCESS
BLDR-2024-039282,8/7/2024,"44354 OLDETOWNE PL, ASHBURN, VA 20147",permits_2024_08.pdf,39.02100069999999,-77.466144,"44354 Oldetowne Pl, Ashburn, VA 20147, USA",SUCCESS
BLDR-2024-039302,8/7/2024,"43716 RED HOUSE DR, LEESBURG, VA 20176",permits_2024_08.pdf,39.08365879999999,-77.4881032,"43716 Red House Dr, Leesburg, VA 20176, USA",SUCCESS
BLDR-2024-039385,8/7/2024,"24805 NATURAL BRIDGE PL, ALDIE, VA 20105",permits_2024_08.pdf,38.9316176,-77.54576759999999,"24805 Natural Bridge Pl, Stone Ridge, VA 20105, USA",SUCCESS
BLDR-2024-040339,8/7/2024,"22821 HIGHCREST CIR, ASHBURN, VA 20148",permits_2024_08.pdf,38.9860585,-77.52534829999999,"22821 Highcrest Cir, Ashburn, VA 20148, USA",SUCCESS
BLDR-2024-040544,8/7/2024,"1003 N STERLING BLVD, STERLING, VA 20164",permits_2024_08.pdf,39.0142469,-77.39262450000001,"1003 N Sterling Blvd, Sterling, VA 20164, USA",SUCCESS
BLDR-2024-040545,8/7/2024,"46174 CHESTER TER, STERLING, VA 20165",permits_2024_08.pdf,39.0369731,-77.4021551,"46174 Chester Terrace, Sterling, VA 20165, USA",SUCCESS
BLDR-2024-040793,8/7/2024,"22813 ORCHARD GROVE DR, ASHBURN, VA 20148",permits_2024_08.pdf,38.986767,-77.55251,"22813 Orch Grv Dr, Ashburn, VA 20148, USA",SUCCESS
BLDC-2024-027325,8/8/2024,"22960 SHAW RD Unit: 610, STERLING, VA 20166",permits_2024_08.pdf,38.98073979999999,-77.4223837,"22960 Shaw Rd # 610, Sterling, VA 20166, USA",SUCCESS
BLDC-2024-027805,8/8/2024,"43757 METRO TER, ASHBURN, VA 20147",permits_2024_08.pdf,39.0119523,-77.4876946,"43757 Metro Ter, Ashburn, VA 20147, USA",SUCCESS
BLDC-2024-027835,8/8/2024,"43767 METRO TER, ASHBURN, VA 20147",permits_2024_08.pdf,39.0119849,-77.48749939999999,"43767 Metro Ter, Ashburn, VA 20147, USA",SUCCESS
BLDC-2024-027836,8/8/2024,"43771 METRO TER, ASHBURN, VA 20147",permits_2024_08.pdf,39.0119941,-77.4874134,"43771 Metro Ter, Ashburn, VA 20147, USA",SUCCESS
BLDC-2024-027837,8/8/2024,"43775 METRO TER, ASHBURN, VA 20147",permits_2024_08.pdf,39.0120065,-77.48732989999999,"43775 Metro Ter, Ashburn, VA 20147, USA",SUCCESS
BLDC-2024-027838,8/8/2024,"43779 METRO TER, ASHBURN, VA 20147",permits_2024_08.pdf,39.0120158,-77.4872451,"43779 Metro Ter, Ashburn, VA 20147, USA",SUCCESS
BLDC-2024-027839,8/8/2024,"43783 METRO TER, ASHBURN, VA 20147",permits_2024_08.pdf,39.0120291,-77.48715770000001,"43783 Metro Ter, Ashburn, VA 20147, USA",SUCCESS
BLDC-2024-027840,8/8/2024,"43787 METRO TER, ASHBURN, VA 20147",permits_2024_08.pdf,39.0120425,-77.4870794,"43787 Metro Ter, Ashburn, VA 20147, USA",SUCCESS
BLDC-2024-027841,8/8/2024,"43791 METRO TER, ASHBURN, VA 20147",permits_2024_08.pdf,39.012066,-77.487016,"43791 Metro Ter, Ashburn, VA 20147, USA",SUCCESS
BLDC-2024-027842,8/8/2024,"43763 METRO TER, ASHBURN, VA 20147",permits_2024_08.pdf,39.0119735,-77.48758029999999,"43763 Metro Ter, Ashburn, VA 20147, USA",SUCCESS
BLDC-2024-027845,8/8/2024,"43791 METRO TER, ASHBURN, VA 20147",permits_2024_08.pdf,39.012066,-77.487016,"43791 Metro Ter, Ashburn, VA 20147, USA",SUCCESS
BLDC-2024-027846,8/8/2024,"43761 METRO TER, ASHBURN, VA 20147",permits_2024_08.pdf,39.01196789999999,-77.487622,"43761 Metro Ter, Ashburn, VA 20147, USA",SUCCESS
BLDC-2024-027848,8/8/2024,"43765 METRO TER, ASHBURN, VA 20147",permits_2024_08.pdf,39.0119812,-77.4875398,"43765 Metro Ter, Ashburn, VA 20147, USA",SUCCESS
BLDC-2024-027849,8/8/2024,"43769 METRO TER, ASHBURN, VA 20147",permits_2024_08.pdf,39.0119905,-77.4874577,"43769 Metro Ter, Ashburn, VA 20147, USA",SUCCESS
BLDC-2024-027850,8/8/2024,"43773 METRO TER, ASHBURN, VA 20147",permits_2024_08.pdf,39.0120008,-77.4873703,"43773 Metro Ter, Ashburn, VA 20147, USA",SUCCESS
BLDC-2024-027851,8/8/2024,"43777 METRO TER, ASHBURN, VA 20147",permits_2024_08.pdf,39.0120172,-77.4872894,"43777 Metro Ter, Ashburn, VA 20147, USA",SUCCESS
BLDC-2024-027852,8/8/2024,"43781 METRO TER, ASHBURN, VA 20147",permits_2024_08.pdf,39.01202139999999,-77.4872008,"43781 Metro Ter, Ashburn, VA 20147, USA",SUCCESS
BLDC-2024-027853,8/8/2024,"43785 METRO TER, ASHBURN, VA 20147",permits_2024_08.pdf,39.0120379,-77.4871251,"43785 Metro Ter, Ashburn, VA 20147, USA",SUCCESS
BLDC-2024-027854,8/8/2024,"43789 METRO TER, ASHBURN, VA 20147",permits_2024_08.pdf,39.0120522,-77.4870376,"43789 Metro Ter, Ashburn, VA 20147, USA",SUCCESS
BLDC-2024-027855,8/8/2024,"43759 METRO TER, ASHBURN, VA 20147",permits_2024_08.pdf,39.0119602,-77.48766379999999,"43759 Metro Ter, Ashburn, VA 20147, USA",SUCCESS
BLDR-2024-029875,8/8/2024,"203 WHITNEY PL NE, LEESBURG, VA 20176",permits_2024_08.pdf,39.1222662,-77.5568146,"203 Whitney Pl NE, Leesburg, VA 20176, USA",SUCCESS
BLDR-2024-032130,8/8/2024,"18724 POTOMAC STATION DR, LEESBURG, VA 20176",permits_2024_08.pdf,39.0968584,-77.50745500000001,"18724 Potomac Station Dr, Leesburg, VA 20176, USA",SUCCESS
BLDR-2024-034190,8/8/2024,"20396 WHITE OAK DR, STERLING, VA 20165",permits_2024_08.pdf,39.0514178,-77.4275079,"20396 White Oak Dr, Sterling, VA 20165, USA",SUCCESS
BLDR-2024-036663,8/8/2024,"35915 QUANTUM PL, ROUND HILL, VA 20141",permits_2024_08.pdf,39.1223248,-77.7614601,"35915 Quantum Pl, Purcellville, VA 20132, USA",SUCCESS
BLDR-2024-037379,8/8/2024,"40562 BANSHEE DR, LEESBURG, VA 20175",permits_2024_08.pdf,39.0378918,-77.59765209999999,"40562 Banshee Dr, Leesburg, VA 20175, USA",SUCCESS
BLDR-2024-038532,8/8/2024,"801 OLD SADDLE DR, MIDDLEBURG, VA 20117",permits_2024_08.pdf,38.97144,-77.74524,"801 Old Saddle Dr, Middleburg, VA 20117, USA",SUCCESS
BLDR-2024-038617,8/8/2024,"42955 TARA CT, ASHBURN, VA 20147",permits_2024_08.pdf,39.0463658,-77.5151936,"42955 Tara Ct, Ashburn, VA 20147, USA",SUCCESS
BLDR-2024-039251,8/8/2024,"20980 DEER RUN WAY, ASHBURN, VA 20147",permits_2024_08.pdf,39.0358083,-77.5067256,"20980 Deer Run Way, Ashburn, VA 20147, USA",SUCCESS
BLDR-2024-039339,8/8/2024,"24973 LENAH CROSSING DR, ALDIE, VA 20105",permits_2024_08.pdf,38.9258123,-77.5740764,"24973 Lenah Crossing Dr, Stone Ridge, VA 20105, USA",SUCCESS
BLDR-2024-039480,8/8/2024,"42982 LOST FARM TER, LEESBURG, VA 20175",permits_2024_08.pdf,39.081382,-77.514096,"42982 Lost Farm Terrace, Leesburg, VA 20175, USA",SUCCESS
BLDR-2024-040263,8/8/2024,"14959 MOGUL CT, WATERFORD, VA 20197",permits_2024_08.pdf,39.2033422,-77.66348669999999,"14959 Mogul Ct, Purcellville, VA 20132, USA",SUCCESS
BLDR-2024-040288,8/8/2024,"305 HIGHAM CT NE, LEESBURG, VA 20176",permits_2024_08.pdf,39.1184047,-77.5537636,"305 Higham Ct NE, Leesburg, VA 20176, USA",SUCCESS
BLDR-2024-040972,8/8/2024,"43117 BALTUSROL TER, ASHBURN, VA 20147",permits_2024_08.pdf,39.0739086,-77.50338500000001,"43117 Baltusrol Terrace, Ashburn, VA 20147, USA",SUCCESS
BLDR-2024-041216,8/8/2024,"41927 JASPER TRAIL DR, ASHBURN, VA 20148",permits_2024_08.pdf,38.987678,-77.552553,"41927 Jasper Trl Dr, Ashburn, VA 20148, USA",SUCCESS
BLDR-2024-041755,8/8/2024,"21583 BANKBARN TER, ASHBURN, VA 20148",permits_2024_08.pdf,39.0193776,-77.51739119999999,"21583 Bankbarn Terrace, Broadlands, VA 20148, USA",SUCCESS
BLDR-2024-041809,8/8/2024,"43450 THISTLEWOOD CT, ASHBURN, VA 20147",permits_2024_08.pdf,39.03141340000001,-77.49822569999999,"43450 Thistlewood Ct, Ashburn, VA 20147, USA",SUCCESS
BLDR-2024-041877,8/8/2024,"24472 RIPPLE CT, ALDIE, VA 20105",permits_2024_08.pdf,38.9402964,-77.56540059999999,"24472 Ripple Ct, Aldie, VA 20105, USA",SUCCESS
BLDC-2024-030859,8/9/2024,"20903 RUNNYMEADE TER, ASHBURN, VA 20147",permits_2024_08.pdf,39.038339,-77.47036659999999,"20903 Runnymeade Terrace, Ashburn, VA 20147, USA",SUCCESS
BLDC-2024-039637,8/9/2024,"25445 PLEASANT VALLEY RD, CHANTILLY, VA 20152",permits_2024_08.pdf,38.914586,-77.4758669,"25445 Pleasant Valley Rd, Chantilly, VA 20152, USA",SUCCESS
BLDR-2024-015428,8/9/2024,"34813 APPLE PRIDE CT, ROUND HILL, VA 20141",permits_2024_08.pdf,39.126845,-77.801881,"34813 Apple Pride Ct, Round Hill, VA 20141, USA",SUCCESS
BLDR-2024-025471,8/9/2024,"14725 CREEK LN, WATERFORD, VA 20197",permits_2024_08.pdf,39.2082591,-77.6148034,"14725 Creek Ln, Waterford, VA 20197, USA",SUCCESS
BLDR-2024-029780,8/9/2024,"23224 SALLY MILL RD, MIDDLEBURG, VA 20117",permits_2024_08.pdf,38.9747904,-77.6826803,"23224 Sally Mill Rd, Middleburg, VA 20117, USA",SUCCESS
BLDR-2024-030935,8/9/2024,"24158 THURSO SQ, STERLING, VA 20166",permits_2024_08.pdf,38.9490505,-77.532968,"24158 Thurso Sq, Sterling, VA 20166, USA",SUCCESS
BLDR-2024-031102,8/9/2024,"23704 VELVET GRASS LN, ASHBURN, VA 20148",permits_2024_08.pdf,38.9622773,-77.5601817,"23704 Velvet Grass Ln, Ashburn, VA 20148, USA",SUCCESS
BLDR-2024-031764,8/9/2024,"40279 BEACON HILL DR, LEESBURG, VA 20176",permits_2024_08.pdf,39.1470775,-77.6081114,"40279 Beacon Hill Dr, Leesburg, VA 20176, USA",SUCCESS
BLDR-2024-034783,8/9/2024,"24935 VIRGINIA JUNIPER CT, ALDIE, VA 20105",permits_2024_08.pdf,38.9275396,-77.5735167,"24935 Virginia Juniper Ct, Stone Ridge, VA 20105, USA",SUCCESS
BLDR-2024-035565,8/9/2024,"17671 LAKEFIELD RD, ROUND HILL, VA 20141",permits_2024_08.pdf,39.129122,-77.751254,"17671 Lakefield Rd, Round Hill, VA 20141, USA",SUCCESS
BLDR-2024-036332,8/9/2024,"20771 LAPLUME PL, ASHBURN, VA 20147",permits_2024_08.pdf,39.0411268,-77.4777277,"20771 Laplume Pl, Ashburn, VA 20147, USA",SUCCESS
BLDR-2024-036339,8/9/2024,"20771 LAPLUME PL, ASHBURN, VA 20147",permits_2024_08.pdf,39.0411268,-77.4777277,"20771 Laplume Pl, Ashburn, VA 20147, USA",SUCCESS
BLDR-2024-036608,8/9/2024,"46423 WHITETOP DR, STERLING, VA 20164",permits_2024_08.pdf,39.021562,-77.393547,"46423 White Top Dr, Sterling, VA 20164, USA",SUCCESS
BLDR-2024-037052,8/9/2024,"24151 THURSO SQ, STERLING, VA 20166",permits_2024_08.pdf,38.9492199,-77.5334416,"24151 Thurso Sq, Sterling, VA 20166, USA",SUCCESS
BLDR-2024-037054,8/9/2024,"24153 THURSO SQ, STERLING, VA 20166",permits_2024_08.pdf,38.9491595,-77.5334384,"24153 Thurso Sq, Sterling, VA 20166, USA",SUCCESS
BLDR-2024-037057,8/9/2024,"24155 THURSO SQ, STERLING, VA 20166",permits_2024_08.pdf,38.9490992,-77.5334352,"24155 Thurso Sq, Sterling, VA 20166, USA",SUCCESS
BLDR-2024-037062,8/9/2024,"24157 THURSO SQ, STERLING, VA 20166",permits_2024_08.pdf,38.94903130000001,-77.53343149999999,"24157 Thurso Sq, Sterling, VA 20166, USA",SUCCESS
BLDR-2024-037773,8/9/2024,"39050 DOBBINS FARM LN, LOVETTSVILLE, VA 20180",permits_2024_08.pdf,39.278496,-77.6512879,"39050 Dobbins Farm Ln, Lovettsville, VA 20180, USA",SUCCESS
BLDR-2024-038303,8/9/2024,"38652 JOHN WOLFORD RD, WATERFORD, VA 20197",permits_2024_08.pdf,39.2011979,-77.66374979999999,"38652 John Wolford Rd, Waterford, VA 20197, USA",SUCCESS
BLDR-2024-039444,8/9/2024,"42818 CHATELAIN CIR, ASHBURN, VA 20148",permits_2024_08.pdf,38.972539,-77.5208364,"42818 Chatelain Cir, Ashburn, VA 20148, USA",SUCCESS
BLDR-2024-040056,8/9/2024,"24589 HUTCHINSON FARM DR, STERLING, VA 20166",permits_2024_08.pdf,38.9373764,-77.53046189999999,"24589 Hutchinson Farm Dr, Sterling, VA 20166, USA",SUCCESS
BLDC-2024-001842,8/12/2024,"19450 COMPASS CREEK PKWY, LEESBURG, VA 20175",permits_2024_08.pdf,39.0785364,-77.56258609999999,"19450 Compass Creek Pkwy, Leesburg, VA 20175, USA",SUCCESS
BLDC-2024-018840,8/12/2024,"21435 EPICERIE PLZ Unit: 130, STERLING, VA 20164",permits_2024_08.pdf,39.0232698,-77.39456899999999,"21435 Epicerie Plaza Suite 130, Sterling, VA 20164, USA",SUCCESS
BLDC-2024-033897,8/12/2024,"1021A EDWARDS FERRY RD NE, LEESBURG, VA 20176",permits_2024_08.pdf,39.1116126,-77.53587739999999,"1021 Edwards Ferry Rd NE, Leesburg, VA 20176, USA",SUCCESS
BLDC-2024-040869,8/12/2024,"21593 JESSE CT, STERLING, VA 20166",permits_2024_08.pdf,39.0186536,-77.4298417,"21593 Jesse Ct, Sterling, VA 20166, USA",SUCCESS
BLDR-2024-032381,8/12/2024,"20407 CLIFTONS POINT ST, STERLING, VA 20165",permits_2024_08.pdf,39.0493824,-77.3561532,"20407 Cliftons Point St, Sterling, VA 20165, USA",SUCCESS
BLDR-2024-032461,8/12/2024,"25657 WYNDHAM POINT CT, ALDIE, VA 20105",permits_2024_08.pdf,38.9047924,-77.59272419999999,"25657 Wyndham Point Ct, Stone Ridge, VA 20105, USA",SUCCESS
BLDR-2024-033317,8/12/2024,"23021 CHAMBOURCIN PL, ASHBURN, VA 20148",permits_2024_08.pdf,38.982101,-77.576161,"23021 Chambourcin Pl, Ashburn, VA 20148, USA",SUCCESS
BLDR-2024-034286,8/12/2024,"42521 FLEMMING DR, CHANTILLY, VA 20152",permits_2024_08.pdf,38.9066463,-77.5329952,"42521 Flemming Dr, Chantilly, VA 20152, USA",SUCCESS
BLDR-2024-034514,8/12/2024,"43105 SHERBROOKE TER, LEESBURG, VA 20176",permits_2024_08.pdf,39.0961644,-77.5093084,"43105 Sherbrooke Terrace, Leesburg, VA 20176, USA",SUCCESS
BLDR-2024-035121,8/12/2024,"18210 PRESIDIO PL, ROUND HILL, VA 20141",permits_2024_08.pdf,39.1143974,-77.7598678,"18210 Presidio Pl, Round Hill, VA 20141, USA",SUCCESS
BLDR-2024-036050,8/12/2024,"16099 WATERFORD CREEK CIR, HAMILTON, VA 20158",permits_2024_08.pdf,39.171361,-77.6519749,"16099 Waterford Creek Cir, Hamilton, VA 20158, USA",SUCCESS
BLDR-2024-036310,8/12/2024,"309 E POPLAR RD, STERLING, VA 20164",permits_2024_08.pdf,38.9951608,-77.410341,"309 E Poplar Rd, Sterling, VA 20164, USA",SUCCESS
BLDR-2024-039326,8/12/2024,"41340 WINDYBUSH DR, LEESBURG, VA 20175",permits_2024_08.pdf,39.0403256,-77.5713675,"41340 Windybush Dr, Leesburg, VA 20175, USA",SUCCESS
BLDR-2024-039810,8/12/2024,"21950 TRACTION PL, STERLING, VA 20164",permits_2024_08.pdf,39.00876179999999,-77.411552,"21950 Traction Pl, Sterling, VA 20164, USA",SUCCESS
BLDR-2024-040584,8/12/2024,"405 N FILLMORE AVE, STERLING, VA 20164",permits_2024_08.pdf,39.0042311,-77.39524709999999,"405 N Fillmore Ave, Sterling, VA 20164, USA",SUCCESS
BLDR-2024-041115,8/12/2024,"24556 POMMEL TER, STERLING, VA 20166",permits_2024_08.pdf,38.9381271,-77.5313517,"24556 Pommel Ter, Dulles, VA 20166, USA",SUCCESS
BLDR-2024-041260,8/12/2024,"24890 QUIMBY OAKS PL, ALDIE, VA 20105",permits_2024_08.pdf,38.9294337,-77.57927459999999,"24890 Quimby Oaks Pl, Aldie, VA 20105, USA",SUCCESS
BLDC-2024-008479,8/13/2024,"506 SHAW RD Unit: 304, STERLING, VA 20166",permits_2024_08.pdf,38.9883841,-77.4258215,"506 Shaw Rd Suite 304, Sterling, VA 20166, USA",SUCCESS
BLDC-2024-031748,8/13/2024,"20 PIDGEON HILL DR Unit: 108, STERLING, VA 20165",permits_2024_08.pdf,39.0384,-77.413799,"20 Pidgeon Hill Dr Ste 108, Sterling, VA 20165, USA",SUCCESS
BLDC-2024-032931,8/13/2024,"43375 OLD OX RD, STERLING, VA 20166",permits_2024_08.pdf,38.9563968,-77.50119219999999,"43375 Old Ox Rd, Sterling, VA 20166, USA",SUCCESS
BLDC-2024-033284,8/13/2024,"25742 BRANCH RAIL DR, CHANTILLY, VA 20152",permits_2024_08.pdf,38.905669,-77.5431297,"25742 Branch Rail Dr, South Riding, VA 20152, USA",SUCCESS
BLDR-2024-001586,8/13/2024,"41845 PADDOCK GATE PL, ASHBURN, VA 20148",permits_2024_08.pdf,38.9573436,-77.5557393,"41845 Paddock Gate Pl, Ashburn, VA 20148, USA",SUCCESS
BLDR-2024-026102,8/13/2024,"20552 WILD MEADOW CT, ASHBURN, VA 20147",permits_2024_08.pdf,39.0478461,-77.4946387,"20552 Wild Meadow Ct, Ashburn, VA 20147, USA",SUCCESS
BLDR-2024-027773,8/13/2024,"44298 KENTMERE CT, ASHBURN, VA 20147",permits_2024_08.pdf,39.0265847,-77.4686957,"44298 Kentmere Ct, Ashburn, VA 20147, USA",SUCCESS
BLDR-2024-032015,8/13/2024,"21255 PARK GROVE TER, ASHBURN, VA 20147",permits_2024_08.pdf,39.0282107,-77.46402599999999,"21255 Park Grove Terrace, Ashburn, VA 20147, USA",SUCCESS
BLDR-2024-032363,8/13/2024,"43965 BIDWELL CT, ASHBURN, VA 20147",permits_2024_08.pdf,39.0479862,-77.4798993,"43965 Bidwell Ct, Ashburn, VA 20147, USA",SUCCESS
BLDR-2024-033667,8/13/2024,"19 DEVENSHIRE CT, STERLING, VA 20165",permits_2024_08.pdf,39.0490656,-77.41364879999999,"19 Devenshire Ct, Sterling, VA 20165, USA",SUCCESS
BLDR-2024-033844,8/13/2024,"311 DAVIS AVE SW, LEESBURG, VA 20175",permits_2024_08.pdf,39.104339,-77.5770091,"311 Davis Ave SW, Leesburg, VA 20175, USA",SUCCESS
BLDR-2024-034331,8/13/2024,"21851 KNOB HILL PL, ASHBURN, VA 20148",permits_2024_08.pdf,39.0133746,-77.556919,"21851 Knob Hill Pl, Ashburn, VA 20148, USA",SUCCESS
BLDR-2024-034449,8/13/2024,"16777 MACNAUGHTON CT, PURCELLVILLE, VA 20132",permits_2024_08.pdf,39.1532313,-77.6976244,"16777 Macnaughton Ct, Purcellville, VA 20132, USA",SUCCESS
BLDR-2024-035930,8/13/2024,"23737 BRADFORD KNOLL LN, ALDIE, VA 20105",permits_2024_08.pdf,38.961562,-77.58107,"23737 Bradford Knl Ln, Aldie, VA 20105, USA",SUCCESS
BLDR-2024-036220,8/13/2024,"41605 WAKEHURST PL, LEESBURG, VA 20176",permits_2024_08.pdf,39.1892724,-77.5616151,"41605 Wakehurst Pl, Leesburg, VA 20176, USA",SUCCESS
BLDR-2024-036224,8/13/2024,"23562 ROUNDUP PL, ALDIE, VA 20105",permits_2024_08.pdf,38.966401,-77.62556,"23562 Roundup Pl, Aldie, VA 20105, USA",SUCCESS
BLDR-2024-037879,8/13/2024,"25496 HEATHFIELD CIR, CHANTILLY, VA 20152",permits_2024_08.pdf,38.9123208,-77.51119419999999,"25496 Heathfield Cir, Chantilly, VA 20152, USA",SUCCESS
BLDR-2024-041785,8/13/2024,"310 FOXRIDGE DR SW, LEESBURG, VA 20175",permits_2024_08.pdf,39.1135545,-77.5803992,"310 Foxridge Dr SW, Leesburg, VA 20175, USA",SUCCESS
BLDR-2024-042411,8/13/2024,"43655 GLEN CASTLE CT, ASHBURN, VA 20147",permits_2024_08.pdf,39.0424376,-77.49070739999999,"43655 Glen Castle Ct, Ashburn, VA 20147, USA",SUCCESS
BLDR-2024-042652,8/13/2024,"23392 SWEET MAGNOLIA CT, ALDIE, VA 20105",permits_2024_08.pdf,38.970496,-77.565793,"23392 Sweet Magnolia Court, Aldie, VA 20105, USA",SUCCESS
BLDR-2024-042883,8/13/2024,"41796 PENDERRY CT, ALDIE, VA 20105",permits_2024_08.pdf,38.9344116,-77.5572694,"41796 Penderry Ct, Aldie, VA 20105, USA",SUCCESS
BLDR-2024-042912,8/13/2024,"20092 NORTHVILLE HILLS TER, ASHBURN, VA 20147",permits_2024_08.pdf,39.0597495,-77.4989884,"20092 Northville Hills Terrace, Ashburn, VA 20147, USA",SUCCESS
BLDC-2024-030371,8/14/2024,"44640 WAXPOOL RD Unit: 150, ASHBURN, VA 20147",permits_2024_08.pdf,39.0139099,-77.46048309999999,"44640 Waxpool Rd #150, Ashburn, VA 20147, USA",SUCCESS
BLDC-2024-033885,8/14/2024,"19443 JAMES MONROE HWY, LEESBURG, VA 20175",permits_2024_08.pdf,39.0815086,-77.605379,"19443 James Monroe Hwy, Leesburg, VA 20175, USA",SUCCESS
BLDC-2024-039305,8/14/2024,"43701 CLUBBER LN, CHANTILLY, VA 20152",permits_2024_08.pdf,38.916814,-77.492859,"43701 Clubber Ln, Chantilly, VA 20152, USA",SUCCESS
BLDC-2024-040568,8/14/2024,"20576 ASHBURN RD, ASHBURN, VA 20147",permits_2024_08.pdf,39.04872030000001,-77.4853831,"20576 Ashburn Rd, Ashburn, VA 20147, USA",SUCCESS
BLDR-2024-018387,8/14/2024,"41993 WINNING GLORY DR, ALDIE, VA 20105",permits_2024_08.pdf,38.8994112,-77.5513243,"41993 Winning Glory Dr, Aldie, VA 20105, USA",OUT_OF_BOUNDS
BLDR-2024-031776,8/14/2024,"42650 GULICKS LANDING CT, ASHBURN, VA 20148",permits_2024_08.pdf,39.0105568,-77.5271779,"42650 Gulicks Landing Ct, Ashburn, VA 20148, USA",SUCCESS
BLDR-2024-033059,8/14/2024,"18680 RIVERLOOK CT, LEESBURG, VA 20176",permits_2024_08.pdf,39.100884,-77.495111,"18680 Riverlook Ct, Leesburg, VA 20176, USA",SUCCESS
BLDR-2024-033076,8/14/2024,"26599 VANDERVIEW PL, CHANTILLY, VA 20152",permits_2024_08.pdf,38.8809763,-77.5429772,"26599 Vanderview Pl, Chantilly, VA 20152, USA",OUT_OF_BOUNDS
BLDR-2024-033877,8/14/2024,"127 STRATFORD PL SW, LEESBURG, VA 20175",permits_2024_08.pdf,39.1065411,-77.571334,"127 Stratford Pl SW, Leesburg, VA 20175, USA",SUCCESS
BLDR-2024-035867,8/14/2024,"584 TULIPTREE SQ NE, LEESBURG, VA 20176",permits_2024_08.pdf,39.1050231,-77.52874450000002,"584 Tuliptree Square NE, Leesburg, VA 20176, USA",SUCCESS
BLDR-2024-036153,8/14/2024,"16777 MACNAUGHTON CT, PURCELLVILLE, VA 20132",permits_2024_08.pdf,39.1532313,-77.6976244,"16777 Macnaughton Ct, Purcellville, VA 20132, USA",SUCCESS
BLDR-2024-036217,8/14/2024,"47332 MIDDLE BLUFF PL, STERLING, VA 20165",permits_2024_08.pdf,39.0512279,-77.36146889999999,"47332 Middle Bluff Pl, Sterling, VA 20165, USA",SUCCESS
BLDR-2024-037341,8/14/2024,"37769 ALLDER SCHOOL RD, PURCELLVILLE, VA 20132",permits_2024_08.pdf,39.158676,-77.69701959999999,"37769 Allder School Rd, Purcellville, VA 20132, USA",SUCCESS
BLDR-2024-039621,8/14/2024,"17040 NEEDLES CT, LEESBURG, VA 20176",permits_2024_08.pdf,39.1451946,-77.5920051,"17040 Needles Ct, Leesburg, VA 20176, USA",SUCCESS
BLDR-2024-039638,8/14/2024,"44193 BRISTOW CIR, ASHBURN, VA 20147",permits_2024_08.pdf,39.0530545,-77.47331369999999,"44193 Bristow Cir, Ashburn, VA 20147, USA",SUCCESS
BLDR-2024-040230,8/14/2024,"111 ALPINE DR SE, LEESBURG, VA 20175",permits_2024_08.pdf,39.0925291,-77.5681384,"111 Alpine Dr SE, Leesburg, VA 20175, USA",SUCCESS
BLDR-2024-041237,8/14/2024,"38476 DITCHLING PL, HAMILTON, VA 20158",permits_2024_08.pdf,39.1556806,-77.6718154,"38476 Ditchling Pl, Hamilton, VA 20158, USA",SUCCESS
BLDR-2024-041431,8/14/2024,"11811 BROCKMAN LN, GREAT FALLS, VA 22066",permits_2024_08.pdf,39.0337953,-77.3522531,"11811 Brockman Ln, Great Falls, VA 22066, USA",SUCCESS
BLDR-2024-042187,8/14/2024,"40227 BROWNS CREEK PL, LEESBURG, VA 20175",permits_2024_08.pdf,39.0563108,-77.6081768,"40227 Browns Creek Pl, Leesburg, VA 20175, USA",SUCCESS
BLDR-2024-043582,8/14/2024,"22336 PHILANTHROPIC DR, ASHBURN, VA 20148",permits_2024_08.pdf,38.9987607,-77.5001186,"22336 Philanthropic Dr, Ashburn, VA 20148, USA",SUCCESS
BLDC-2024-015394,8/15/2024,"44675 CAPE CT Unit: 110, ASHBURN, VA 20147",permits_2024_08.pdf,39.0154819,-77.460194,"44675 Cape Ct STE 110, Ashburn, VA 20147, USA",SUCCESS
BLDC-2024-028885,8/15/2024,"44355 PREMIER PLZ Unit: 220, ASHBURN, VA 20147",permits_2024_08.pdf,39.0614149,-77.4657335,"44355 Premier Plaza Suite 220, Ashburn, VA 20147, USA",SUCCESS
BLDR-2024-031192,8/15/2024,"24269 GRAYLEAF WILLOW PL, ALDIE, VA 20105",permits_2024_08.pdf,38.946503,-77.59120469999999,"24269 Grayleaf Willow Pl, Stone Ridge, VA 20105, USA",SUCCESS
BLDR-2024-031273,8/15/2024,"20552 WILD MEADOW CT, ASHBURN, VA 20147",permits_2024_08.pdf,39.0478461,-77.4946387,"20552 Wild Meadow Ct, Ashburn, VA 20147, USA",SUCCESS
BLDR-2024-033110,8/15/2024,"20788 ESKRIDGE CT, STERLING, VA 20165",permits_2024_08.pdf,39.0399597,-77.39350929999999,"20788 Eskridge Ct, Sterling, VA 20165, USA",SUCCESS
BLDR-2024-034109,8/15/2024,"19929 MIZNER TER, ASHBURN, VA 20147",permits_2024_08.pdf,39.064721,-77.49702599999999,"19929 Mizner Terrace, Ashburn, VA 20147, USA",SUCCESS
BLDR-2024-034210,8/15/2024,"20638 MARBLEHEAD DR, ASHBURN, VA 20147",permits_2024_08.pdf,39.0433565,-77.4528127,"20638 Marblehead Dr, Ashburn, VA 20147, USA",SUCCESS
BLDR-2024-034999,8/15/2024,"47305 MIDDLE BLUFF PL, STERLING, VA 20165",permits_2024_08.pdf,39.0524011,-77.3620796,"47305 Middle Bluff Pl, Sterling, VA 20165, USA",SUCCESS
BLDR-2024-035339,8/15/2024,"43887 CHLOE TER, ASHBURN, VA 20147",permits_2024_08.pdf,39.0508162,-77.4822765,"43887 Chloe Terrace, Ashburn, VA 20147, USA",SUCCESS
BLDR-2024-041539,8/15/2024,"831 CATTAIL LN NE, LEESBURG, VA 20176",permits_2024_08.pdf,39.1199421,-77.54341260000001,"831 Cattail Ln NE, Leesburg, VA 20176, USA",SUCCESS
BLDR-2024-043643,8/15/2024,"20231 SENECA SQ, ASHBURN, VA 20147",permits_2024_08.pdf,39.0564383,-77.4684467,"20231 Seneca Square, Ashburn, VA 20147, USA",SUCCESS
BLDC-2024-033820,8/16/2024,"2 HARRISON ST SE, LEESBURG, VA 20175",permits_2024_08.pdf,39.1135353,-77.56144929999999,"2 Harrison St SE, Leesburg, VA 20175, USA",SUCCESS
BLDC-2024-036772,8/16/2024,"120 E O ST, PURCELLVILLE, VA 20132",permits_2024_08.pdf,39.1380892,-77.71474119999999,"120 E O St, Purcellville, VA 20132, USA",SUCCESS
BLDC-2024-037293,8/16/2024,"1 HARRISON ST SE, LEESBURG, VA 20175",permits_2024_08.pdf,39.1138069,-77.5619677,"1 Harrison St SE, Leesburg, VA 20175, USA",SUCCESS
BLDR-2024-028122,8/16/2024,"21463 CHUDLEIGH FARM LN, ALDIE, VA 20105",permits_2024_08.pdf,39.0190218,-77.6436265,"21463 Chudleigh Farm Ln, Aldie, VA 20105, USA",SUCCESS
BLDR-2024-029559,8/16/2024,"22564 SAM FRED RD, MIDDLEBURG, VA 20117",permits_2024_08.pdf,38.99290999999999,-77.7064283,"22564 Sam Fred Rd, Middleburg, VA 20117, USA",SUCCESS
BLDR-2024-029699,8/16/2024,"38872 AVERY OAKS LN, HAMILTON, VA 20158",permits_2024_08.pdf,39.149644,-77.65878200000002,"38872 Avery Oaks Ln, Hamilton, VA 20158, USA",SUCCESS
BLDR-2024-033121,8/16/2024,"38455 BROADOAK PL, HAMILTON, VA 20158",permits_2024_08.pdf,39.1425884,-77.6724699,"38455 Broadoak Pl, Hamilton, VA 20158, USA",SUCCESS
BLDR-2024-034573,8/16/2024,"135 SENECA RIDGE DR, STERLING, VA 20164",permits_2024_08.pdf,39.0330781,-77.3701036,"135 Seneca Ridge Dr, Sterling, VA 20164, USA",SUCCESS
BLDR-2024-035178,8/16/2024,"24201 STATESBORO PL, ASHBURN, VA 20148",permits_2024_08.pdf,38.9488122,-77.5621353,"24201 Statesboro Pl, Ashburn, VA 20148, USA",SUCCESS
BLDR-2024-035328,8/16/2024,"19078 PARALLEL BLUFFS CT, LEESBURG, VA 20176",permits_2024_08.pdf,39.0884851,-77.5041591,"19078 Parallel Bluffs Ct, Leesburg, VA 20176, USA",SUCCESS
BLDR-2024-036184,8/16/2024,"39576 DELLAMANNA LN, LOVETTSVILLE, VA 20180",permits_2024_08.pdf,39.29946899999999,-77.62568440000001,"39576 Dellamanna Ln, Lovettsville, VA 20180, USA",SUCCESS
BLDR-2024-036195,8/16/2024,"606 ROCKBRIDGE DR SE, LEESBURG, VA 20175",permits_2024_08.pdf,39.1038288,-77.5537859,"606 Rockbridge Dr SE, Leesburg, VA 20175, USA",SUCCESS
BLDR-2024-040924,8/16/2024,"22921 MONTJOY CT, LEESBURG, VA 20175",permits_2024_08.pdf,38.983362,-77.6078232,"22921 Montjoy Ct, Leesburg, VA 20175, USA",SUCCESS
BLDR-2024-043052,8/16/2024,"707 EMERALD HILL DR NE, LEESBURG, VA 20176",permits_2024_08.pdf,39.0977535,-77.5184034,"707 Emerald Hill Dr NE, Leesburg, VA 20176, USA",SUCCESS
BLDR-2024-043058,8/16/2024,"552 SPARKLEBERRY TER NE, LEESBURG, VA 20176",permits_2024_08.pdf,39.102811,-77.5302545,"552 Sparkleberry Terrace NE, Leesburg, VA 20176, USA",SUCCESS
BLDR-2024-043814,8/16/2024,"24 COOPER RUN ST, LOVETTSVILLE, VA 20180",permits_2024_08.pdf,39.2806188,-77.64131069999999,"24 Cooper Run St, Lovettsville, VA 20180, USA",SUCCESS
BLDC-2024-035815,8/18/2024,"1021A EDWARDS FERRY RD NE, LEESBURG, VA 20176",permits_2024_08.pdf,39.1116126,-77.53587739999999,"1021 Edwards Ferry Rd NE, Leesburg, VA 20176, USA",SUCCESS
BLDC-2024-008780,8/19/2024,"21826 PACIFIC BLVD, STERLING, VA 20166",permits_2024_08.pdf,39.0126096,-77.43684979999999,"21826 Pacific Blvd, Sterling, VA 20166, USA",SUCCESS
BLDC-2024-032576,8/19/2024,"44760 GIGABIT PLZ, ASHBURN, VA 20147",permits_2024_08.pdf,39.0197398,-77.47234279999999,"44760 Gigabit Plz, Ashburn, VA 20147, USA",SUCCESS
BLDC-2024-039309,8/19/2024,"43736 CLUBBER LN, CHANTILLY, VA 20152",permits_2024_08.pdf,38.9158359,-77.4923238,"43736 Clubber Ln, Chantilly, VA 20152, USA",SUCCESS
BLDC-2024-039310,8/19/2024,"45110 LOUDOUN DOWNS LN, STERLING, VA 20166",permits_2024_08.pdf,38.9911518,-77.44136619999999,"45110 Loudoun Downs Ln, Sterling, VA 20166, USA",SUCCESS
BLDC-2024-039313,8/19/2024,"45950 PATHFINDER PLZ, STERLING, VA 20164",permits_2024_08.pdf,38.9869039,-77.4104756,"45950 Pathfinder Plz, Sterling, VA 20164, USA",SUCCESS
BLDC-2024-039319,8/19/2024,"43831 DEVIN SHAFRON DR, ASHBURN, VA 20147",permits_2024_08.pdf,39.0027376,-77.4853845,"43831 Devin Shafron Dr, Ashburn, VA 20147, USA",SUCCESS
BLDC-2024-039320,8/19/2024,"22630 DULLES SUMMIT CT, STERLING, VA 20166",permits_2024_08.pdf,38.9887204,-77.44766299999999,"22630 Dulles Summit Ct, Sterling, VA 20166, USA",SUCCESS
BLDR-2024-005964,8/19/2024,"506 SHERRY ANN CT SE, LEESBURG, VA 20175",permits_2024_08.pdf,39.0875989,-77.5364824,"506 Sherry Ann Ct, Leesburg, VA 20175, USA",SUCCESS
BLDR-2024-024026,8/19/2024,"43388 BURKE DALE ST, CHANTILLY, VA 20152",permits_2024_08.pdf,38.9031107,-77.4991898,"43388 Burke Dale St, Chantilly, VA 20152, USA",SUCCESS
BLDR-2024-029696,8/19/2024,"14150 COURTNEY MEADOW PL, LEESBURG, VA 20176",permits_2024_08.pdf,39.224718,-77.586254,"14150 Courtney Meadow Pl, Leesburg, VA 20176, USA",SUCCESS
BLDR-2024-037391,8/19/2024,"43809 TIMBERBROOKE PL, ASHBURN, VA 20147",permits_2024_08.pdf,39.0337776,-77.4852258,"43809 Timberbrooke Pl, Ashburn, VA 20147, USA",SUCCESS
BLDR-2024-037497,8/19/2024,"35471 TROON CT, ROUND HILL, VA 20141",permits_2024_08.pdf,39.1224685,-77.77727999999999,"35471 Troon Ct, Round Hill, VA 20141, USA",SUCCESS
BLDR-2024-039675,8/19/2024,"16486 PURCELLVILLE RD, PURCELLVILLE, VA 20132",permits_2024_08.pdf,39.1616691,-77.7116511,"16486 Purcellville Rd, Purcellville, VA 20132, USA",SUCCESS
BLDR-2024-041265,8/19/2024,"40373 WINDYHILL FARMS DR, ALDIE, VA 20105",permits_2024_08.pdf,38.9576944,-77.60717679999999,"40373 Windyhill Farms Dr, Aldie, VA 20105, USA",SUCCESS
BLDR-2024-042321,8/19/2024,"19373 BLACK OAK RD, PURCELLVILLE, VA 20132",permits_2024_08.pdf,39.0862098,-77.7760964,"19373 Black Oak Rd, Purcellville, VA 20132, USA",SUCCESS
BLDR-2024-042335,8/19/2024,"15079 LYNNFORD CT, WATERFORD, VA 20197",permits_2024_08.pdf,39.1993225,-77.6578629,"15079 Lynnford Ct, Waterford, VA 20197, USA",SUCCESS
BLDC-2024-038288,8/20/2024,"62 PLAZA ST NE, LEESBURG, VA 20176",permits_2024_08.pdf,39.1097998,-77.548373,"62 Plaza St NE, Leesburg, VA 20176, USA",SUCCESS
BLDC-2024-039314,8/20/2024,"45111 LOUDOUN DOWNS LN, STERLING, VA 20166",permits_2024_08.pdf,38.9914453,-77.44129889999999,"45111 Loudoun Downs Ln, Sterling, VA 20166, USA",SUCCESS
BLDR-2024-030950,8/20/2024,"24146 THURSO SQ, STERLING, VA 20166",permits_2024_08.pdf,38.9493886,-77.5329861,"24146 Thurso Sq, Sterling, VA 20166, USA",SUCCESS
BLDR-2024-032159,8/20/2024,"38177 BRITAIN RD, LOVETTSVILLE, VA 20180",permits_2024_08.pdf,39.2497657,-77.68165909999999,"38177 Britain Rd, Lovettsville, VA 20180, USA",SUCCESS
BLDR-2024-032282,8/20/2024,"20114 AIRMONT RD, ROUND HILL, VA 20141",permits_2024_08.pdf,39.0627199,-77.7945099,"20114 Airmont Rd, Round Hill, VA 20141, USA",SUCCESS
BLDR-2024-032459,8/20/2024,"41105 HAYBINE LN, ALDIE, VA 20105",permits_2024_08.pdf,38.9088225,-77.5813968,"41105 Haybine Ln, Aldie, VA 20105, USA",SUCCESS
BLDR-2024-032672,8/20/2024,"38492 TITNORE CT, HAMILTON, VA 20158",permits_2024_08.pdf,39.1594711,-77.6712174,"38492 Titnore Ct, Hamilton, VA 20158, USA",SUCCESS
BLDR-2024-034241,8/20/2024,"25183 METHLEY PLUM PL, ALDIE, VA 20105",permits_2024_08.pdf,38.9200708,-77.5989764,"25183 Methley Plum Pl, Aldie, VA 20105, USA",SUCCESS
BLDR-2024-034471,8/20/2024,"40444 LENAH RUN CIR, ALDIE, VA 20105",permits_2024_08.pdf,38.9476722,-77.5893423,"40444 Lenah Run Cir, Aldie, VA 20105, USA",SUCCESS
BLDR-2024-035179,8/20/2024,"46881 DUCKSPRINGS WAY, STERLING, VA 20164",permits_2024_08.pdf,39.0285609,-77.37765499999999,"46881 Ducksprings Way, Sterling, VA 20164, USA",SUCCESS
BLDR-2024-035180,8/20/2024,"23294 VIRGINIA RAE CT, ASHBURN, VA 20148",permits_2024_08.pdf,38.9723882,-77.53509799999999,"23294 Virginia Rae Ct, Ashburn, VA 20148, USA",SUCCESS
BLDR-2024-038589,8/20/2024,"23682 KENNEWICK VALLEY CT, ALDIE, VA 20105",permits_2024_08.pdf,38.962087,-77.584283,"23682 Kennewick Vly Ct, Aldie, VA 20105, USA",SUCCESS
BLDR-2024-038637,8/20/2024,"43228 BROXTON TER, ASHBURN, VA 20148",permits_2024_08.pdf,39.011472,-77.5063169,"43228 Broxton Terrace, Broadlands, VA 20148, USA",SUCCESS
BLDR-2024-038746,8/20/2024,"3 PHILLIPS DR NW, LEESBURG, VA 20176",permits_2024_08.pdf,39.1206405,-77.58012699999999,"3 Phillips Dr, Leesburg, VA 20176, USA",SUCCESS
BLDR-2024-042364,8/20/2024,"20067 BONNIE CT, ASHBURN, VA 20147",permits_2024_08.pdf,39.0609328,-77.4557916,"20067 Bonnie Ct, Ashburn, VA 20147, USA",SUCCESS
BLDR-2024-042537,8/20/2024,"40828 GRENATA PRESERVE PL, LEESBURG, VA 20175",permits_2024_08.pdf,39.0724085,-77.5875887,"40828 Grenata Preserve Pl, Leesburg, VA 20175, USA",SUCCESS
BLDR-2024-042876,8/20/2024,"43766 CRANE CT, ASHBURN, VA 20147",permits_2024_08.pdf,39.0184217,-77.4864523,"43766 Crane Ct, Ashburn, VA 20147, USA",SUCCESS
BLDC-2024-031666,8/21/2024,"506 SHAW RD Unit: 304, STERLING, VA 20166",permits_2024_08.pdf,38.9883841,-77.4258215,"506 Shaw Rd Suite 304, Sterling, VA 20166, USA",SUCCESS
BLDC-2024-039312,8/21/2024,"42949 FADELEY LN, STERLING, VA 20166",permits_2024_08.pdf,38.9492565,-77.5198092,"42949 Fadeley Ln, Dulles, VA 20166, USA",SUCCESS
BLDC-2024-039317,8/21/2024,"45295 W SEVERN WAY, STERLING, VA 20166",permits_2024_08.pdf,39.0205552,-77.4352483,"45295 W Severn Way, Sterling, VA 20166, USA",SUCCESS
BLDC-2024-040020,8/21/2024,"45130 VANTAGE DATA PLZ, STERLING, VA 20166",permits_2024_08.pdf,39.002829,-77.44024619999999,"45130 Vantage Data Plz, Sterling, VA 20166, USA",SUCCESS
BLDR-2024-026491,8/21/2024,"41228 GRENATA PRESERVE PL, LEESBURG, VA 20175",permits_2024_08.pdf,39.073758,-77.57609099999999,"41228 Grenata Preserve Pl, Leesburg, VA 20175, USA",SUCCESS
BLDR-2024-037837,8/21/2024,"22169 STABLEHOUSE DR, STERLING, VA 20164",permits_2024_08.pdf,39.0051538,-77.4240676,"22169 Stablehouse Dr, Sterling, VA 20164, USA",SUCCESS
BLDR-2024-039665,8/21/2024,"25446 ELM TER, ALDIE, VA 20105",permits_2024_08.pdf,38.9136348,-77.558245,"25446 Elm Terrace, Aldie, VA 20105, USA",SUCCESS
BLDR-2024-039859,8/21/2024,"23316 HASTINGS RIDGE CT, ALDIE, VA 20105",permits_2024_08.pdf,38.9699173,-77.5721568,"23316 Hastings Rdg Ct, Aldie, VA 20105, USA",SUCCESS
BLDR-2024-040248,8/21/2024,"702 SENTINEL DR NE, LEESBURG, VA 20176",permits_2024_08.pdf,39.0959175,-77.5189735,"702 Sentinel Dr NE, Leesburg, VA 20176, USA",SUCCESS
BLDR-2024-041806,8/21/2024,"36465 LEITH LN, MIDDLEBURG, VA 20117",permits_2024_08.pdf,39.0238549,-77.7439808,"36465 Leith Ln, Middleburg, VA 20117, USA",SUCCESS
BLDR-2024-041845,8/21/2024,"24943 DAHLIA MANOR PL, ALDIE, VA 20105",permits_2024_08.pdf,38.9289317,-77.6012794,"24943 Dahlia Manor Pl, Aldie, VA 20105, USA",SUCCESS
BLDR-2024-042521,8/21/2024,"41899 DIAMONDLEAF TER, ALDIE, VA 20105",permits_2024_08.pdf,38.9201677,-77.5544177,"41899 Diamondleaf Terrace, Aldie, VA 20105, USA",SUCCESS
BLDR-2024-042691,8/21/2024,"43086 NORTHLAKE BLVD, LEESBURG, VA 20176",permits_2024_08.pdf,39.1058429,-77.51035929999999,"43086 Northlake Blvd, Leesburg, VA 20176, USA",SUCCESS
BLDC-2024-033017,8/22/2024,"44714 BRIMFIELD DR, ASHBURN, VA 20147",permits_2024_08.pdf,39.0508397,-77.4533551,"44714 Brimfield Dr, Ashburn, VA 20147, USA",SUCCESS
BLDC-2024-036574,8/22/2024,"1044 INFERNO TER SE, LEESBURG, VA 20175",permits_2024_08.pdf,39.09634,-77.5396595,"1044 Inferno Ter SE, Leesburg, VA 20175, USA",SUCCESS
BLDR-2024-010170,8/22/2024,"21595 CHUDLEIGH FARM LN, ALDIE, VA 20105",permits_2024_08.pdf,39.0169249,-77.6428448,"21595 Chudleigh Farm Ln, Aldie, VA 20105, USA",SUCCESS
BLDR-2024-016682,8/22/2024,"35306 CARNOUSTIE CIR, ROUND HILL, VA 20141",permits_2024_08.pdf,39.120813,-77.78396099999999,"35306 Carnoustie Cir, Round Hill, VA 20141, USA",SUCCESS
BLDR-2024-030947,8/22/2024,"24148 THURSO SQ, STERLING, VA 20166",permits_2024_08.pdf,38.9493337,-77.53298319999999,"24148 Thurso Sq, Sterling, VA 20166, USA",SUCCESS
BLDR-2024-030953,8/22/2024,"24144 THURSO SQ, STERLING, VA 20166",permits_2024_08.pdf,38.9494524,-77.5329896,"24144 Thurso Sq, Sterling, VA 20166, USA",SUCCESS
BLDR-2024-031728,8/22/2024,"22771 MELROSE FARM LN, MIDDLEBURG, VA 20117",permits_2024_08.pdf,38.989011,-77.7675675,"22771 Melrose Farm Ln, Middleburg, VA 20117, USA",SUCCESS
BLDR-2024-031907,8/22/2024,"40552 ALDIE SPRINGS DR, ALDIE, VA 20105",permits_2024_08.pdf,38.9417297,-77.59947609999999,"40552 Aldie Springs Dr, Aldie, VA 20105, USA",SUCCESS
BLDR-2024-032191,8/22/2024,"41541 DOGWOOD PARK CIR, ALDIE, VA 20105",permits_2024_08.pdf,38.9690924,-77.5663436,"41541 Dogwood Park Circle, Aldie, VA 20105, USA",SUCCESS
BLDR-2024-032232,8/22/2024,"15950 BRIDLEPATH LN, PAEONIAN SPRINGS, VA 20129",permits_2024_08.pdf,39.1745723,-77.59678,"15950 Bridlepath Ln, Paeonian Springs, VA 20129, USA",SUCCESS
BLDR-2024-032343,8/22/2024,"41251 MAYFIELD FALLS DR, ALDIE, VA 20105",permits_2024_08.pdf,38.9590773,-77.5765993,"41251 Mayfield Fls Dr, Stone Ridge, VA 20105, USA",SUCCESS
BLDR-2024-033129,8/22/2024,"21041 WILLOWBROOK DR, ASHBURN, VA 20147",permits_2024_08.pdf,39.03418560000001,-77.5091255,"21041 Willowbrook Dr, Ashburn, VA 20147, USA",SUCCESS
BLDR-2024-035962,8/22/2024,"1205 E LEE RD, STERLING, VA 20164",permits_2024_08.pdf,38.9948721,-77.39616099999999,"1205 E Lee Rd, Sterling, VA 20164, USA",SUCCESS
BLDR-2024-036992,8/22/2024,"40924 ARCADIAN POND CT, ALDIE, VA 20105",permits_2024_08.pdf,38.9354444,-77.5880069,"40924 Arcadian Pond Ct, Stone Ridge, VA 20105, USA",SUCCESS
BLDR-2024-037045,8/22/2024,"24149 THURSO SQ, STERLING, VA 20166",permits_2024_08.pdf,38.9492802,-77.5334448,"24149 Thurso Sq, Sterling, VA 20166, USA",SUCCESS
BLDR-2024-037152,8/22/2024,"14550 NINA CT, WATERFORD, VA 20197",permits_2024_08.pdf,39.2137356,-77.6470408,"14550 Nina Ct, Waterford, VA 20197, USA",SUCCESS
BLDR-2024-037576,8/22/2024,"43114 HUNTERS GREEN SQ, ASHBURN, VA 20148",permits_2024_08.pdf,39.023271,-77.511017,"43114 Hunters Green Square, Broadlands, VA 20148, USA",SUCCESS
BLDR-2024-039517,8/22/2024,"24064 HUNTERS TRAIL LN, ALDIE, VA 20105",permits_2024_08.pdf,38.9518505,-77.61890249999999,"24064 Hunters Trail Ln, Aldie, VA 20105, USA",SUCCESS
BLDR-2024-039876,8/22/2024,"43700 RALEIGH PL, ASHBURN, VA 20147",permits_2024_08.pdf,39.04995640000001,-77.4891615,"43700 Raleigh Pl, Ashburn, VA 20147, USA",SUCCESS
BLDR-2024-039892,8/22/2024,"243 W MARKET ST, LEESBURG, VA 20176",permits_2024_08.pdf,39.1168026,-77.57023269999999,"243 W Market St, Leesburg, VA 20176, USA",SUCCESS
BLDR-2024-040587,8/22/2024,"20705 DEERFIELD RUN LN, LEESBURG, VA 20175",permits_2024_08.pdf,39.046319,-77.56742899999999,"20705 Deerfield Run Ln, Leesburg, VA 20175, USA",SUCCESS
BLDR-2024-040898,8/22/2024,"304 SWAN POINT CT, PURCELLVILLE, VA 20132",permits_2024_08.pdf,39.121506,-77.715975,"304 Swan Point Ct, Purcellville, VA 20132, USA",SUCCESS
BLDR-2024-041679,8/22/2024,"40989 INDIGO PL, LEESBURG, VA 20175",permits_2024_08.pdf,38.9952402,-77.586024,"40989 Indigo Pl, Leesburg, VA 20175, USA",SUCCESS
BLDR-2024-041738,8/22/2024,"23625 HARTLAND KNOLL CT, ALDIE, VA 20105",permits_2024_08.pdf,38.9645042,-77.578015,"23625 Hartland Knl Ct, Aldie, VA 20105, USA",SUCCESS
BLDR-2024-041889,8/22/2024,"41352 LAVENDER BREEZE CIR, ALDIE, VA 20105",permits_2024_08.pdf,38.9437212,-77.5817485,"41352 Lavender Breeze Cir, Aldie, VA 20105, USA",SUCCESS
BLDR-2024-043034,8/22/2024,"22006 JAMES MONROE HWY, ALDIE, VA 20105",permits_2024_08.pdf,39.0085027,-77.6125982,"22006 James Monroe Hwy, Aldie, VA 20105, USA",SUCCESS
BLDR-2024-044055,8/22/2024,"23423 PERRY KNOLL CT, ALDIE, VA 20105",permits_2024_08.pdf,38.9692775,-77.58588329999999,"23423 Perry Knl Ct, Aldie, VA 20105, USA",SUCCESS
BLDC-2024-036948,8/23/2024,"42704 CATTAIL CREEK DR, LEESBURG, VA 20176",permits_2024_08.pdf,39.108044,-77.52365900000001,"42704 Cattail Crk Dr, Leesburg, VA 20176, USA",SUCCESS
BLDC-2024-036949,8/23/2024,"42718 CANNON CHAPEL DR, LEESBURG, VA 20176",permits_2024_08.pdf,39.108028,-77.52460900000001,"42718 Cannon Chapel Dr, Leesburg, VA 20176, USA",SUCCESS
BLDR-2024-033605,8/23/2024,"21239 RAVENWOOD CT, STERLING, VA 20165",permits_2024_08.pdf,39.02755399999999,-77.3656793,"21239 Ravenwood Ct, Sterling, VA 20165, USA",SUCCESS
BLDR-2024-034391,8/23/2024,"22480 AMORI LN, LEESBURG, VA 20175",permits_2024_08.pdf,38.9956372,-77.5842898,"22480 Amori Ln, Leesburg, VA 20175, USA",SUCCESS
BLDR-2024-035577,8/23/2024,"35763 CODY FARM DR, ROUND HILL, VA 20141",permits_2024_08.pdf,39.142305,-77.766892,"35763 Cody Farm Dr, Round Hill, VA 20141, USA",SUCCESS
BLDR-2024-035665,8/23/2024,"23942 WEIRWOOD TREE CT, ALDIE, VA 20105",permits_2024_08.pdf,38.9554802,-77.5817508,"23942 Weirwood Tree Ct, Aldie, VA 20105, USA",SUCCESS
BLDR-2024-042056,8/23/2024,"22942 COPPER TREE TER, ASHBURN, VA 20148",permits_2024_08.pdf,38.9829793,-77.545273,"22942 Copper Tree Ter, Brambleton, VA 20148, USA",SUCCESS
BLDR-2024-042304,8/23/2024,"126 GREAT LAUREL SQ SE, LEESBURG, VA 20175",permits_2024_08.pdf,39.0922832,-77.5559804,"126 Great Laurel Square SE, Leesburg, VA 20175, USA",SUCCESS
BLDR-2024-042405,8/23/2024,"43399 WILDROSE CT, ASHBURN, VA 20147",permits_2024_08.pdf,39.0408599,-77.498195,"43399 Wildrose Ct, Ashburn, VA 20147, USA",SUCCESS
BLDR-2024-042505,8/23/2024,"41877 DUBLANE PL, ASHBURN, VA 20148",permits_2024_08.pdf,39.0099184,-77.55351999999999,"41877 Dublane Pl, Ashburn, VA 20148, USA",SUCCESS
BLDR-2024-042792,8/23/2024,"108 N HARRISON RD, STERLING, VA 20164",permits_2024_08.pdf,38.9993693,-77.3968963,"108 N Harrison Rd, Sterling, VA 20164, USA",SUCCESS
BLDR-2024-042859,8/23/2024,"406 LACEY CT SW, LEESBURG, VA 20175",permits_2024_08.pdf,39.0881104,-77.59608469999999,"406 Lacey Ct SW, Leesburg, VA 20175, USA",SUCCESS
BLDR-2024-043075,8/23/2024,"41464 CANONGATE DR, LEESBURG, VA 20175",permits_2024_08.pdf,39.130741,-77.60222399999999,"41464 Canongate Dr, Leesburg, VA 20175, USA",SUCCESS
BLDR-2024-043088,8/23/2024,"15075 BANKFIELD DR, WATERFORD, VA 20197",permits_2024_08.pdf,39.1991478,-77.5830301,"15075 Bankfield Dr, Waterford, VA 20197, USA",SUCCESS
BLDR-2024-043154,8/23/2024,"602 W WASHINGTON ST, MIDDLEBURG, VA 20117",permits_2024_08.pdf,38.9673751,-77.7422678,"602 W Washington St, Middleburg, VA 20117, USA",SUCCESS
BLDR-2024-043190,8/23/2024,"1007 KALARIS PL SE, LEESBURG, VA 20175",permits_2024_08.pdf,39.0941745,-77.5734015,"1007 Kalaris Pl SE, Leesburg, VA 20175, USA",SUCCESS
BLDR-2024-043243,8/23/2024,"20 MONARCH DR, STERLING, VA 20164",permits_2024_08.pdf,39.0387048,-77.37214519999999,"20 Monarch Dr, Sterling, VA 20164, USA",SUCCESS
BLDC-2024-035755,8/26/2024,"20110 ASHBROOK PL Unit: 125, ASHBURN, VA 20147",permits_2024_08.pdf,39.0603152,-77.4621006,"20110 Ashbrook Pl #125, Ashburn, VA 20147, USA",SUCCESS
BLDR-2024-031518,8/26/2024,"42649 LOBELIA PL, CHANTILLY, VA 20152",permits_2024_08.pdf,38.87793449999999,-77.5287774,"42649 Lobelia Pl, Chantilly, VA 20152, USA",OUT_OF_BOUNDS
BLDR-2024-034889,8/26/2024,"19722 WILLOWDALE PL, ASHBURN, VA 20147",permits_2024_08.pdf,39.07157360000001,-77.49469479999999,"19722 Willowdale Pl, Ashburn, VA 20147, USA",SUCCESS
BLDR-2024-035800,8/26/2024,"17290 HAMILTON STATION RD, HAMILTON, VA 20158",permits_2024_08.pdf,39.1388397,-77.652603,"17290 Hamilton Station Rd, Hamilton, VA 20158, USA",SUCCESS
BLDR-2024-035914,8/26/2024,"1205 E LEE RD, STERLING, VA 20164",permits_2024_08.pdf,38.9948721,-77.39616099999999,"1205 E Lee Rd, Sterling, VA 20164, USA",SUCCESS
BLDR-2024-038239,8/26/2024,"35475 GLENCOE CT, ROUND HILL, VA 20141",permits_2024_08.pdf,39.1681375,-77.7768107,"35475 Glencoe Ct, Round Hill, VA 20141, USA",SUCCESS
BLDR-2024-038266,8/26/2024,"361 S DAVIS DR, PURCELLVILLE, VA 20132",permits_2024_08.pdf,39.1323922,-77.723193,"361 Davis Dr, Purcellville, VA 20132, USA",SUCCESS
BLDR-2024-041297,8/26/2024,"42318 IRON BIT PL, CHANTILLY, VA 20152",permits_2024_08.pdf,38.8554088,-77.533456,"42318 Iron Bit Pl, Chantilly, VA 20152, USA",OUT_OF_BOUNDS
BLDR-2024-041577,8/26/2024,"46415 WHITETOP DR, STERLING, VA 20164",permits_2024_08.pdf,39.021395,-77.3938,"46415 White Top Dr, Sterling, VA 20164, USA",SUCCESS
BLDR-2024-041622,8/26/2024,"25230 LARKS TER, CHANTILLY, VA 20152",permits_2024_08.pdf,38.9193414,-77.5189218,"25230 Larks Terrace, South Riding, VA 20152, USA",SUCCESS
BLDR-2024-043164,8/26/2024,"43029 ADDLESTONE PL, ASHBURN, VA 20148",permits_2024_08.pdf,38.9808792,-77.5136727,"43029 Addlestone Pl, Ashburn, VA 20148, USA",SUCCESS
BLDR-2024-043886,8/26/2024,"17459 LETHRIDGE CIR, ROUND HILL, VA 20141",permits_2024_08.pdf,39.1331038,-77.75753139999999,"17459 Lethridge Circle, Round Hill, VA 20141, USA",SUCCESS
BLDC-2024-000861,8/27/2024,"41785 INCLUSION LN, LEESBURG, VA 20175",permits_2024_08.pdf,39.06691550000001,-77.5585543,"41785 Inclusion Ln, Leesburg, VA 20175, USA",SUCCESS
BLDC-2024-001396,8/27/2024,"41785 INCLUSION LN, LEESBURG, VA 20175",permits_2024_08.pdf,39.06691550000001,-77.5585543,"41785 Inclusion Ln, Leesburg, VA 20175, USA",SUCCESS
BLDC-2024-001400,8/27/2024,"41785 INCLUSION LN, LEESBURG, VA 20175",permits_2024_08.pdf,39.06691550000001,-77.5585543,"41785 Inclusion Ln, Leesburg, VA 20175, USA",SUCCESS
BLDC-2024-001409,8/27/2024,"41785 INCLUSION LN, LEESBURG, VA 20175",permits_2024_08.pdf,39.06691550000001,-77.5585543,"41785 Inclusion Ln, Leesburg, VA 20175, USA",SUCCESS
BLDC-2024-001417,8/27/2024,"41785 INCLUSION LN, LEESBURG, VA 20175",permits_2024_08.pdf,39.06691550000001,-77.5585543,"41785 Inclusion Ln, Leesburg, VA 20175, USA",SUCCESS
BLDC-2024-001425,8/27/2024,"41785 INCLUSION LN, LEESBURG, VA 20175",permits_2024_08.pdf,39.06691550000001,-77.5585543,"41785 Inclusion Ln, Leesburg, VA 20175, USA",SUCCESS
BLDC-2024-001431,8/27/2024,"41785 INCLUSION LN, LEESBURG, VA 20175",permits_2024_08.pdf,39.06691550000001,-77.5585543,"41785 Inclusion Ln, Leesburg, VA 20175, USA",SUCCESS
BLDC-2024-008914,8/27/2024,"24331 HOWLING ROOSTER LN, STERLING, VA 20166",permits_2024_08.pdf,38.9460132,-77.526292,"24331 Howling Rooster Ln, Dulles, VA 20166, USA",SUCCESS
BLDC-2024-016044,8/27/2024,"45805 WOODLAND RD, STERLING, VA 20166",permits_2024_08.pdf,39.0176094,-77.4169418,"45805 Woodland Rd, Sterling, VA 20166, USA",SUCCESS
BLDC-2024-039945,8/27/2024,"20931 ASHBURN RD Unit: 245, ASHBURN, VA 20147",permits_2024_08.pdf,39.0396007,-77.4870755,"20931 Ashburn Rd suite 245, Ashburn, VA 20147, USA",SUCCESS
BLDC-2024-040949,8/27/2024,"42885 ORCHARD ORIOLE DR, ASHBURN, VA 20147",permits_2024_08.pdf,39.053925,-77.5175031,"42885 Orchard Oriole Dr, Ashburn, VA 20147, USA",SUCCESS
BLDC-2024-040954,8/27/2024,"21250 CLAIBORNE PKWY, ASHBURN, VA 20148",permits_2024_08.pdf,39.0276904,-77.50734299999999,"21250 Claiborne Pkwy, Ashburn, VA 20148, USA",SUCCESS
BLDC-2024-041085,8/27/2024,"24194 MILLSTREAM DR, ALDIE, VA 20105",permits_2024_08.pdf,38.9355893,-77.5571885,"24194 Millstream Dr, Aldie, VA 20105, USA",SUCCESS
BLDR-2024-006695,8/27/2024,"40357 FEATHERBED LN, LOVETTSVILLE, VA 20180",permits_2024_08.pdf,39.2316556,-77.6108187,"40357 Featherbed Ln, Lovettsville, VA 20180, USA",SUCCESS
BLDR-2024-035541,8/27/2024,"19817 BELMONT RIDGE RD, ASHBURN, VA 20147",permits_2024_08.pdf,39.0713617,-77.5077586,"19817 Belmont Ridge Rd, Ashburn, VA 20147, USA",SUCCESS
BLDR-2024-035655,8/27/2024,"42601 NICKELINE PL, CHANTILLY, VA 20152",permits_2024_08.pdf,38.87216129999999,-77.5291687,"42601 Nickeline Pl, Chantilly, VA 20152, USA",OUT_OF_BOUNDS
BLDR-2024-037957,8/27/2024,"39423 IRISH CORNER RD, LOVETTSVILLE, VA 20180",permits_2024_08.pdf,39.2787578,-77.6425095,"39423 Irish Corner Rd, Lovettsville, VA 20180, USA",SUCCESS
BLDR-2024-038292,8/27/2024,"25866 SYCAMORE GROVE PL, ALDIE, VA 20105",permits_2024_08.pdf,38.904858,-77.54671619999999,"25866 Sycamore Grove Pl, Aldie, VA 20105, USA",SUCCESS
BLDR-2024-039445,8/27/2024,"25859 YELLOW BIRCH CT, ALDIE, VA 20105",permits_2024_08.pdf,38.9010932,-77.5756158,"25859 Yellow Birch Ct, Aldie, VA 20105, USA",SUCCESS
BLDR-2024-040031,8/27/2024,"41851 DIABASE SQ, ALDIE, VA 20105",permits_2024_08.pdf,38.92455450000001,-77.5560356,"41851 Diabase Square, Aldie, VA 20105, USA",SUCCESS
BLDR-2024-040602,8/27/2024,"43546 GOLDEN MEADOW CIR, ASHBURN, VA 20147",permits_2024_08.pdf,39.02842589999999,-77.49518379999999,"43546 Golden Meadow Cir, Ashburn, VA 20147, USA",SUCCESS
BLDR-2024-040909,8/27/2024,"418 NIKKI TER SE, LEESBURG, VA 20175",permits_2024_08.pdf,39.0936554,-77.543928,"418 Nikki Terrace SE, Leesburg, VA 20175, USA",SUCCESS
BLDR-2024-040951,8/27/2024,"21227 FAIRHUNT DR, ASHBURN, VA 20148",permits_2024_08.pdf,39.0301212,-77.53636139999999,"21227 Fairhunt Dr, Ashburn, VA 20148, USA",SUCCESS
BLDR-2024-041277,8/27/2024,"106 WOODGATE CT, STERLING, VA 20164",permits_2024_08.pdf,39.0401454,-77.37902199999999,"106 Woodgate Ct, Sterling, VA 20164, USA",SUCCESS
BLDR-2024-041946,8/27/2024,"40388 MANBAR LN, LEESBURG, VA 20175",permits_2024_08.pdf,38.9739024,-77.6066597,"40388 Manbar Ln, Leesburg, VA 20175, USA",SUCCESS
BLDR-2024-042052,8/27/2024,"46830 WILLOWOOD PL, STERLING, VA 20165",permits_2024_08.pdf,39.0449556,-77.3801057,"46830 Willowood Pl, Sterling, VA 20165, USA",SUCCESS
BLDR-2024-042137,8/27/2024,"34163 KINES LN, BLUEMONT, VA 20135",permits_2024_08.pdf,39.0677185,-77.82510959999999,"34163 Kines Ln, Bluemont, VA 20135, USA",SUCCESS
BLDR-2024-043982,8/27/2024,"42089 GILDED STONE TER, ASHBURN, VA 20148",permits_2024_08.pdf,38.980872,-77.54674399999999,"42089 Gilded Stone Ter, Brambleton, VA 20148, USA",SUCCESS
BLDR-2024-044076,8/27/2024,"208 SNOWDEN CT SW, LEESBURG, VA 20175",permits_2024_08.pdf,39.1180037,-77.5792925,"208 Snowden Ct SW, Leesburg, VA 20175, USA",SUCCESS
BLDR-2024-044229,8/27/2024,"22376 AGING OAK DR, LEESBURG, VA 20175",permits_2024_08.pdf,38.9985586,-77.5838322,"22376 Aging Oak Dr, Leesburg, VA 20175, USA",SUCCESS
BLDC-2024-042155,8/28/2024,"43305 FARRINGDON SQ, ASHBURN, VA 20148",permits_2024_08.pdf,39.0147565,-77.5068569,"43305 Farringdon Sq, Ashburn, VA 20148, USA",SUCCESS
BLDR-2024-028179,8/28/2024,"42102 WALTZ TER, ASHBURN, VA 20148",permits_2024_08.pdf,38.9833788,-77.5462146,"42102 Waltz Ter, Brambleton, VA 20148, USA",SUCCESS
BLDR-2024-038731,8/28/2024,"14671 HUBER PL, WATERFORD, VA 20197",permits_2024_08.pdf,39.20926,-77.6611599,"14671 Huber Pl, Waterford, VA 20197, USA",SUCCESS
BLDR-2024-038766,8/28/2024,"41232 TYNEDALE CT, ASHBURN, VA 20148",permits_2024_08.pdf,38.9766843,-77.5761823,"41232 Tynedale Ct, Ashburn, VA 20148, USA",SUCCESS
BLDR-2024-040188,8/28/2024,"17755 SWEETGUM PL, ROUND HILL, VA 20141",permits_2024_08.pdf,39.126659,-77.776805,"17755 Sweetgum Pl, Round Hill, VA 20141, USA",SUCCESS
BLDR-2024-041832,8/28/2024,"18196 MILL HOUSE SQ, LEESBURG, VA 20176",permits_2024_08.pdf,39.1124579,-77.5128529,"18196 Mill House Square, Leesburg, VA 20176, USA",SUCCESS
BLDR-2024-042413,8/28/2024,"13534 EAGLES REST DR, LEESBURG, VA 20176",permits_2024_08.pdf,39.24093269999999,-77.50185479999999,"13534 Eagles Rest Dr, Leesburg, VA 20176, USA",SUCCESS
BLDR-2024-045550,8/28/2024,"7 S CHURCH ST, LOVETTSVILLE, VA 20180",permits_2024_08.pdf,39.2720912,-77.6416656,"7 S Church St, Lovettsville, VA 20180, USA",SUCCESS
BLDC-2024-042150,8/29/2024,"43497 FARRINGDON SQ, ASHBURN, VA 20148",permits_2024_08.pdf,39.0150172,-77.5063352,"43497 Farringdon Sq, Ashburn, VA 20148, USA",SUCCESS
BLDC-2024-042154,8/29/2024,"43305 FARRINGDON SQ, ASHBURN, VA 20148",permits_2024_08.pdf,39.0147565,-77.5068569,"43305 Farringdon Sq, Ashburn, VA 20148, USA",SUCCESS
BLDC-2024-042161,8/29/2024,"21742 DOLLIS HILL TER, ASHBURN, VA 20148",permits_2024_08.pdf,39.0150042,-77.5063634,"21742 Dollis Hl Ter, Ashburn, VA 20148, USA",SUCCESS
BLDC-2024-042162,8/29/2024,"21744 DOLLIS HILL TER, ASHBURN, VA 20148",permits_2024_08.pdf,39.0149785,-77.5064038,"21744 Dollis Hl Ter, Ashburn, VA 20148, USA",SUCCESS
BLDC-2024-042163,8/29/2024,"21746 DOLLIS HILL TER, ASHBURN, VA 20148",permits_2024_08.pdf,39.0149657,-77.5064336,"21746 Dollis Hl Ter, Ashburn, VA 20148, USA",SUCCESS
BLDC-2024-042164,8/29/2024,"21748 DOLLIS HILL TER, ASHBURN, VA 20148",permits_2024_08.pdf,39.0149421,-77.5064636,"21748 Dollis Hl Ter, Ashburn, VA 20148, USA",SUCCESS
BLDC-2024-042165,8/29/2024,"21750 DOLLIS HILL TER, ASHBURN, VA 20148",permits_2024_08.pdf,39.01492650000001,-77.5065035,"21750 Dollis Hl Ter, Ashburn, VA 20148, USA",SUCCESS
BLDC-2024-042166,8/29/2024,"21752 DOLLIS HILL TER, ASHBURN, VA 20148",permits_2024_08.pdf,39.0149118,-77.5065415,"21752 Dollis Hl Ter, Ashburn, VA 20148, USA",SUCCESS
BLDC-2024-042167,8/29/2024,"21754 DOLLIS HILL TER, ASHBURN, VA 20148",permits_2024_08.pdf,39.0148943,-77.5065757,"21754 Dollis Hl Ter, Ashburn, VA 20148, USA",SUCCESS
BLDC-2024-042168,8/29/2024,"21756 DOLLIS HILL TER, ASHBURN, VA 20148",permits_2024_08.pdf,39.01487669999999,-77.5066104,"21756 Dollis Hl Ter, Ashburn, VA 20148, USA",SUCCESS
BLDC-2024-042169,8/29/2024,"21758 DOLLIS HILL TER, ASHBURN, VA 20148",permits_2024_08.pdf,39.0148657,-77.50664770000002,"21758 Dollis Hl Ter, Ashburn, VA 20148, USA",SUCCESS
BLDC-2024-042170,8/29/2024,"21760 DOLLIS HILL TER, ASHBURN, VA 20148",permits_2024_08.pdf,39.0148414,-77.5066825,"21760 Dollis Hl Ter, Ashburn, VA 20148, USA",SUCCESS
BLDC-2024-042171,8/29/2024,"21762 DOLLIS HILL TER, ASHBURN, VA 20148",permits_2024_08.pdf,39.0148274,-77.5067191,"21762 Dollis Hl Ter, Ashburn, VA 20148, USA",SUCCESS
BLDC-2024-042172,8/29/2024,"21764 DOLLIS HILL TER, ASHBURN, VA 20148",permits_2024_08.pdf,39.0148031,-77.50675389999999,"21764 Dollis Hl Ter, Ashburn, VA 20148, USA",SUCCESS
BLDC-2024-042173,8/29/2024,"21766 DOLLIS HILL TER, ASHBURN, VA 20148",permits_2024_08.pdf,39.0147896,-77.50678099999999,"21766 Dollis Hl Ter, Ashburn, VA 20148, USA",SUCCESS
BLDC-2024-042174,8/29/2024,"21768 DOLLIS HILL TER, ASHBURN, VA 20148",permits_2024_08.pdf,39.0147653,-77.506828,"21768 Dollis Hl Ter, Ashburn, VA 20148, USA",SUCCESS
BLDC-2024-042175,8/29/2024,"43305 FARRINGDON SQ, ASHBURN, VA 20148",permits_2024_08.pdf,39.0147565,-77.5068569,"43305 Farringdon Sq, Ashburn, VA 20148, USA",SUCCESS
BLDC-2024-042176,8/29/2024,"43497 FARRINGDON SQ, ASHBURN, VA 20148",permits_2024_08.pdf,39.0150172,-77.5063352,"43497 Farringdon Sq, Ashburn, VA 20148, USA",SUCCESS
BLDC-2024-044855,8/29/2024,"1640 CHICKASAW PL NE, LEESBURG, VA 20176",permits_2024_08.pdf,39.1186129,-77.5304354,"1640 Chickasaw Pl NE, Leesburg, VA 20176, USA",SUCCESS
BLDR-2024-024810,8/29/2024,"16974 HILLSBORO RD, PURCELLVILLE, VA 20132",permits_2024_08.pdf,39.14648589999999,-77.72886679999999,"16974 Hillsboro Rd, Purcellville, VA 20132, USA",SUCCESS
BLDR-2024-032896,8/29/2024,"40614 GRENATA PRESERVE PL, LEESBURG, VA 20175",permits_2024_08.pdf,39.0743812,-77.58197009999999,"40614 Grenata Preserve Pl, Leesburg, VA 20175, USA",SUCCESS
BLDR-2024-033909,8/29/2024,"208 WILDMAN ST NE, LEESBURG, VA 20176",permits_2024_08.pdf,39.1173699,-77.5569531,"208 Wildman St NE, Leesburg, VA 20176, USA",SUCCESS
BLDR-2024-034124,8/29/2024,"23491 LOFTHILL DR, ASHBURN, VA 20148",permits_2024_08.pdf,38.9663335,-77.544032,"23491 Lofthill Dr, Ashburn, VA 20148, USA",SUCCESS
BLDR-2024-034237,8/29/2024,"25460 BYRNES CROSSING DR, CHANTILLY, VA 20152",permits_2024_08.pdf,38.9130596,-77.5429977,"25460 Byrnes Crossing Dr, South Riding, VA 20152, USA",SUCCESS
BLDR-2024-034474,8/29/2024,"11308 RUSSELL RD, PURCELLVILLE, VA 20132",permits_2024_08.pdf,39.3037468,-77.7135686,"11308 Russell Rd, Purcellville, VA 20132, USA",OUT_OF_BOUNDS
BLDR-2024-036230,8/29/2024,"23893 LENAH CREEK CT, ALDIE, VA 20105",permits_2024_08.pdf,38.9567494,-77.5820478,"23893 Lenah Crk Ct, Stone Ridge, VA 20105, USA",SUCCESS
BLDR-2024-036768,8/29/2024,"24757 STONEHILL FARM CT, ALDIE, VA 20105",permits_2024_08.pdf,38.932858,-77.59411399999999,"24757 Stonehill Farm Ct, Stone Ridge, VA 20105, USA",SUCCESS
BLDR-2024-037100,8/29/2024,"41691 CATOCTIN SPRINGS CT, LEESBURG, VA 20176",permits_2024_08.pdf,39.1945412,-77.5578908,"41691 Catoctin Springs Ct, Leesburg, VA 20176, USA",SUCCESS
BLDR-2024-037943,8/29/2024,"40424 LENAH RUN CIR, ALDIE, VA 20105",permits_2024_08.pdf,38.947595,-77.5873312,"40424 Lenah Run Cir, Aldie, VA 20105, USA",SUCCESS
BLDR-2024-039745,8/29/2024,"22798 MILLTOWN FARM CT, ASHBURN, VA 20148",permits_2024_08.pdf,38.9856755,-77.49914919999999,"22798 Milltown Farm Ct, Ashburn, VA 20148, USA",SUCCESS
BLDR-2024-040616,8/29/2024,"24748 STONEHILL FARM CT, ALDIE, VA 20105",permits_2024_08.pdf,38.9331133,-77.5934326,"24748 Stonehill Farm Ct, Stone Ridge, VA 20105, USA",SUCCESS
BLDR-2024-040736,8/29/2024,"206 HEATHER GLEN RD, STERLING, VA 20165",permits_2024_08.pdf,39.0445568,-77.40462269999999,"206 Heather Glen Rd, Sterling, VA 20165, USA",SUCCESS
BLDR-2024-041463,8/29/2024,"21704 HAWKSBILL HIGH CIR, STERLING, VA 20164",permits_2024_08.pdf,39.0163517,-77.39631059999999,"21704 Hawksbill High Cir, Sterling, VA 20164, USA",SUCCESS
BLDR-2024-041700,8/29/2024,"18989 SKYFIELD RIDGE PL, PURCELLVILLE, VA 20132",permits_2024_08.pdf,39.0913758,-77.77184129999999,"18989 Skyfield Ridge Pl, Hillsboro, VA 20132, USA",SUCCESS
BLDR-2024-042725,8/29/2024,"205 E KING JAMES ST, PURCELLVILLE, VA 20132",permits_2024_08.pdf,39.14067780000001,-77.7129049,"205 E King James St, Purcellville, VA 20132, USA",SUCCESS
BLDR-2024-043978,8/29/2024,"42101 GILDED STONE TER, ASHBURN, VA 20148",permits_2024_08.pdf,38.9810582,-77.5462546,"42101 Gilded Stone Ter, Brambleton, VA 20148, USA",SUCCESS
BLDC-2024-036283,8/30/2024,"41102 LITTLE RIVER TPKE, ALDIE, VA 20105",permits_2024_08.pdf,38.95516689999999,-77.58116919999999,"41102 Little River Tpke, Aldie, VA 20105, USA",SUCCESS
BLDR-2023-017460,8/30/2024,"39295 CROOKED BRIDGE LN, LEESBURG, VA 20175",permits_2024_08.pdf,39.0306827,-77.6464869,"39295 Crooked Bridge Ln, Leesburg, VA 20175, USA",SUCCESS
BLDR-2024-013059,8/30/2024,"21700 CLEAR CREEK LN, ALDIE, VA 20105",permits_2024_08.pdf,39.017746,-77.65411999999999,"21700 Clear Creek Ln, Aldie, VA 20105, USA",SUCCESS
BLDR-2024-021532,8/30/2024,"17594 YATTON RD, ROUND HILL, VA 20141",permits_2024_08.pdf,39.12841700000001,-77.769421,"17594 Yatton Rd, Round Hill, VA 20141, USA",SUCCESS
BLDR-2024-030940,8/30/2024,"24154 THURSO SQ, STERLING, VA 20166",permits_2024_08.pdf,38.9491692,-77.5329744,"24154 Thurso Sq, Sterling, VA 20166, USA",SUCCESS
BLDR-2024-033019,8/30/2024,"39255 CROOKED BRIDGE LN, LEESBURG, VA 20175",permits_2024_08.pdf,39.0347441,-77.6464642,"39255 Crooked Bridge Ln, Leesburg, VA 20175, USA",SUCCESS
BLDR-2024-033113,8/30/2024,"25500 GRASSY MEADOW DR, ALDIE, VA 20105",permits_2024_08.pdf,38.9123362,-77.5534321,"25500 Grassy Mdw Dr, Aldie, VA 20105, USA",SUCCESS
BLDR-2024-035184,8/30/2024,"18100 AIRMONT RD, ROUND HILL, VA 20141",permits_2024_08.pdf,39.1167306,-77.770116,"18100 Airmont Rd, Round Hill, VA 20141, USA",SUCCESS
BLDR-2024-035333,8/30/2024,"22553 AMENDOLA TER, ASHBURN, VA 20148",permits_2024_08.pdf,38.9929527,-77.5047459,"22553 Amendola Terrace, Ashburn, VA 20148, USA",SUCCESS
BLDR-2024-036425,8/30/2024,"21314 WINDRUSH CT, STERLING, VA 20165",permits_2024_08.pdf,39.0264845,-77.3664794,"21314 Windrush Ct, Sterling, VA 20165, USA",SUCCESS
BLDR-2024-037884,8/30/2024,"21212 ANDREAS CT, ASHBURN, VA 20147",permits_2024_08.pdf,39.0286378,-77.47882299999999,"21212 Andreas Ct, Ashburn, VA 20147, USA",SUCCESS
BLDR-2024-038740,8/30/2024,"46896 DUCKSPRINGS WAY, STERLING, VA 20164",permits_2024_08.pdf,39.0283519,-77.37653999999999,"46896 Ducksprings Way, Sterling, VA 20164, USA",SUCCESS
BLDR-2024-039574,8/30/2024,"42336 NATCHEZ DR, LEESBURG, VA 20175",permits_2024_08.pdf,39.0801402,-77.5363919,"42336 Natchez Dr, Leesburg, VA 20175, USA",SUCCESS
BLDR-2024-039936,8/30/2024,"21068 TYLER TOO TER, ASHBURN, VA 20147",permits_2024_08.pdf,39.0333034,-77.47149019999999,"21068 Tyler Too Terrace, Ashburn, VA 20147, USA",SUCCESS
BLDR-2024-041372,8/30/2024,"42110 STONE PRESS TER, ASHBURN, VA 20148",permits_2024_08.pdf,38.9807322,-77.5461727,"42110 Stone Press Ter, Brambleton, VA 20148, USA",SUCCESS
BLDR-2024-041435,8/30/2024,"40989 GRENATA PRESERVE PL, LEESBURG, VA 20175",permits_2024_08.pdf,39.06993569999999,-77.584538,"40989 Grenata Preserve Pl, Leesburg, VA 20175, USA",SUCCESS
BLDR-2024-041922,8/30/2024,"15075 BANKFIELD DR, WATERFORD, VA 20197",permits_2024_08.pdf,39.1991478,-77.5830301,"15075 Bankfield Dr, Waterford, VA 20197, USA",SUCCESS
BLDR-2024-042392,8/30/2024,"43324 VESTALS PL, LEESBURG, VA 20176",permits_2024_08.pdf,39.0897486,-77.5003557,"43324 Vestals Pl, Leesburg, VA 20176, USA",SUCCESS
BLDR-2024-042965,8/30/2024,"42955 MOSS LANDING CT, ASHBURN, VA 20148",permits_2024_08.pdf,39.0244344,-77.5155213,"42955 Moss Landing Ct, Broadlands, VA 20148, USA",SUCCESS
BLDR-2024-043374,8/30/2024,"19751 ESTANCIA TER, ASHBURN, VA 20147",permits_2024_08.pdf,39.0698286,-77.506491,"19751 Estancia Terrace, Ashburn, VA 20147, USA",SUCCESS
BLDR-2024-043475,8/30/2024,"24174 THURSO SQ, STERLING, VA 20166",permits_2024_08.pdf,38.9486333,-77.5329464,"24174 Thurso Sq, Sterling, VA 20166, USA",SUCCESS
BLDR-2024-043476,8/30/2024,"24170 THURSO SQ, STERLING, VA 20166",permits_2024_08.pdf,38.9487412,-77.53295150000001,"24170 Thurso Sq, Sterling, VA 20166, USA",SUCCESS
BLDR-2024-043480,8/30/2024,"24166 THURSO SQ, STERLING, VA 20166",permits_2024_08.pdf,38.94884,-77.5329567,"24166 Thurso Sq, Sterling, VA 20166, USA",SUCCESS
BLDR-2024-043483,8/30/2024,"24164 THURSO SQ, STERLING, VA 20166",permits_2024_08.pdf,38.9488948,-77.53295969999999,"24164 Thurso Sq, Sterling, VA 20166, USA",SUCCESS
BLDR-2024-043485,8/30/2024,"24162 THURSO SQ, STERLING, VA 20166",permits_2024_08.pdf,38.9489586,-77.5329631,"24162 Thurso Sq, Sterling, VA 20166, USA",SUCCESS
BLDR-2024-043494,8/30/2024,"222 BEACON DR, STERLING, VA 20164",permits_2024_08.pdf,39.0277176,-77.3876063,"222 Beacon Dr, Sterling, VA 20164, USA",SUCCESS
BLDR-2024-043510,8/30/2024,"47013 SMITHWOOD CT, STERLING, VA 20165",permits_2024_08.pdf,39.0504682,-77.37254209999999,"47013 Smithwood Ct, Potomac Falls, VA 20165, USA",SUCCESS
BLDR-2024-044108,8/30/2024,"25823 YELLOW BIRCH CT, ALDIE, VA 20105",permits_2024_08.pdf,38.9031418,-77.576362,"25823 Yellow Birch Ct, Aldie, VA 20105, USA",SUCCESS
BLDR-2024-044356,8/30/2024,"43135 MEADOW GROVE DR, ASHBURN, VA 20147",permits_2024_08.pdf,39.0620431,-77.508399,"43135 Meadow Grove Dr, Ashburn, VA 20147, USA",SUCCESS
BLDR-2024-044423,8/30/2024,"38236 NORTH FORK RD, PURCELLVILLE, VA 20132",permits_2024_08.pdf,39.0607329,-77.6815508,"38236 N Fork Rd, Purcellville, VA 20132, USA",SUCCESS
BLDR-2024-045052,8/30/2024,"20624 PREAKNESS CT, ASHBURN, VA 20147",permits_2024_08.pdf,39.0466473,-77.5171052,"20624 Preakness Ct, Ashburn, VA 20147, USA",SUCCESS
BLDR-2024-014259,8/31/2024,"27285 PADDOCK TRAIL PL, CHANTILLY, VA 20152",permits_2024_08.pdf,38.8631023,-77.529488,"27285 Paddock Trail Pl, Chantilly, VA 20152, USA",OUT_OF_BOUNDS
BLDC-2024-053873,1/2/2025,"22321 PACIFIC BLVD, STERLING, VA 20166",permits_2025_01.pdf,38.9993398,-77.4417907,"22321 Pacific Blvd, Sterling, VA 20166, USA",SUCCESS
BLDC-2024-059142,1/2/2025,"45200 BUSINESS CT, STERLING, VA 20166",permits_2025_01.pdf,38.9825543,-77.4371851,"45200 Business Ct, Sterling, VA 20166, USA",SUCCESS
BLDR-2024-047686,1/2/2025,"37374 LITTLE RIVER TPKE, MIDDLEBURG, VA 20117",permits_2025_01.pdf,38.9734935,-77.71271209999999,"37374 Little River Tpke, Middleburg, VA 20117, USA",SUCCESS
BLDR-2024-058103,1/2/2025,"37825 PERKINS CT, PURCELLVILLE, VA 20132",permits_2025_01.pdf,39.1393444,-77.69615069999999,"37825 Perkins Ct, Purcellville, VA 20132, USA",SUCCESS
BLDR-2024-062040,1/2/2025,"42750 HOLLOWIND CT, ASHBURN, VA 20148",permits_2025_01.pdf,39.0183093,-77.5221748,"42750 Hollowind Ct, Broadlands, VA 20148, USA",SUCCESS
BLDR-2024-062064,1/2/2025,"25290 KILKEEN WAY, ALDIE, VA 20105",permits_2025_01.pdf,38.9180244,-77.5631286,"25290 Kilkeen Way, Aldie, VA 20105, USA",SUCCESS
BLDR-2024-062086,1/2/2025,"35583 TREBOR LN, ROUND HILL, VA 20141",permits_2025_01.pdf,39.127529,-77.77252299999999,"35583 Trebor Ln, Round Hill, VA 20141, USA",SUCCESS
BLDR-2024-062193,1/2/2025,"18207 WILD RASPBERRY DR, PURCELLVILLE, VA 20132",permits_2025_01.pdf,39.1022606,-77.7635495,"18207 Wild Raspberry Dr, Purcellville, VA 20132, USA",SUCCESS
BLDR-2024-063585,1/2/2025,"43684 RIVERPOINT DR, LEESBURG, VA 20176",permits_2025_01.pdf,39.0877692,-77.4945248,"43684 Riverpoint Dr, Leesburg, VA 20176, USA",SUCCESS
BLDR-2024-064057,1/2/2025,"40784 NORTHERN WILLOW CT, ALDIE, VA 20105",permits_2025_01.pdf,38.9412376,-77.5931252,"40784 Northern Willow Ct, Stone Ridge, VA 20105, USA",SUCCESS
BLDR-2024-064511,1/2/2025,"25057 OWL CREEK DR, ALDIE, VA 20105",permits_2025_01.pdf,38.9244126,-77.5519647,"25057 Owl Creek Dr, Stone Ridge, VA 20105, USA",SUCCESS
BLDR-2024-064600,1/2/2025,"42973 THORNBLADE CIR, ASHBURN, VA 20148",permits_2025_01.pdf,39.0025551,-77.51522489999999,"42973 Thornblade Cir, Ashburn, VA 20148, USA",SUCCESS
BLDR-2024-064762,1/2/2025,"14926 AUDREY JEAN DR, WATERFORD, VA 20197",permits_2025_01.pdf,39.186409,-77.637869,"14926 Audrey Jean Dr, Waterford, VA 20197, USA",SUCCESS
BLDR-2024-064932,1/2/2025,"25140 FORTITUDE TER, CHANTILLY, VA 20152",permits_2025_01.pdf,38.9216926,-77.5379839,"25140 Fortitude Terrace, Chantilly, VA 20152, USA",SUCCESS
BLDR-2024-065030,1/2/2025,"26028 PEMBROOKE CIR, CHANTILLY, VA 20152",permits_2025_01.pdf,38.8970345,-77.4938348,"26028 Pembrooke Cir, Chantilly, VA 20152, USA",OUT_OF_BOUNDS
BLDC-2024-031758,1/3/2025,"43260 MOSSIMO SQ Unit: 301, CHANTILLY, VA 20152",permits_2025_01.pdf,38.9219487,-77.50740619999999,"43260 Mossimo Sq #301, Chantilly, VA 20152, USA",SUCCESS
BLDC-2024-031762,1/3/2025,"43260 MOSSIMO SQ Unit: 302, CHANTILLY, VA 20152",permits_2025_01.pdf,38.9219487,-77.50740619999999,"43260 Mossimo Sq #302, Chantilly, VA 20152, USA",SUCCESS
BLDC-2024-031766,1/3/2025,"43260 MOSSIMO SQ Unit: 303, CHANTILLY, VA 20152",permits_2025_01.pdf,38.9219487,-77.50740619999999,"43260 Mossimo Sq #303, Chantilly, VA 20152, USA",SUCCESS
BLDC-2024-031773,1/3/2025,"43260 MOSSIMO SQ Unit: 304, CHANTILLY, VA 20152",permits_2025_01.pdf,38.9219487,-77.50740619999999,"43260 Mossimo Sq #304, Chantilly, VA 20152, USA",SUCCESS
BLDC-2024-031774,1/3/2025,"43260 MOSSIMO SQ Unit: 306, CHANTILLY, VA 20152",permits_2025_01.pdf,38.9219487,-77.50740619999999,"43260 Mossimo Sq #306, Chantilly, VA 20152, USA",SUCCESS
BLDC-2024-031775,1/3/2025,"43260 MOSSIMO SQ Unit: 308, CHANTILLY, VA 20152",permits_2025_01.pdf,38.9219487,-77.50740619999999,"43260 Mossimo Sq #308, Chantilly, VA 20152, USA",SUCCESS
BLDC-2024-031779,1/3/2025,"43260 MOSSIMO SQ Unit: 309, CHANTILLY, VA 20152",permits_2025_01.pdf,38.9219487,-77.50740619999999,"43260 Mossimo Sq #309, Chantilly, VA 20152, USA",SUCCESS
BLDC-2024-031780,1/3/2025,"43260 MOSSIMO SQ Unit: 310, CHANTILLY, VA 20152",permits_2025_01.pdf,38.9219487,-77.50740619999999,"43260 Mossimo Sq #310, Chantilly, VA 20152, USA",SUCCESS
BLDC-2024-031781,1/3/2025,"43260 MOSSIMO SQ Unit: 311, CHANTILLY, VA 20152",permits_2025_01.pdf,38.9219487,-77.50740619999999,"43260 Mossimo Sq #311, Chantilly, VA 20152, USA",SUCCESS
BLDC-2024-031782,1/3/2025,"43260 MOSSIMO SQ Unit: 312, CHANTILLY, VA 20152",permits_2025_01.pdf,38.9219487,-77.50740619999999,"43260 Mossimo Sq #312, Chantilly, VA 20152, USA",SUCCESS
BLDC-2024-031783,1/3/2025,"43260 MOSSIMO SQ Unit: 313, CHANTILLY, VA 20152",permits_2025_01.pdf,38.9219487,-77.50740619999999,"43260 Mossimo Sq #313, Chantilly, VA 20152, USA",SUCCESS
BLDC-2024-031785,1/3/2025,"43260 MOSSIMO SQ Unit: 401, CHANTILLY, VA 20152",permits_2025_01.pdf,38.9219487,-77.50740619999999,"43260 Mossimo Sq #401, Chantilly, VA 20152, USA",SUCCESS
BLDC-2024-031786,1/3/2025,"43260 MOSSIMO SQ Unit: 403, CHANTILLY, VA 20152",permits_2025_01.pdf,38.9219487,-77.50740619999999,"43260 Mossimo Sq #403, Chantilly, VA 20152, USA",SUCCESS
BLDC-2024-031787,1/3/2025,"43260 MOSSIMO SQ Unit: 415, CHANTILLY, VA 20152",permits_2025_01.pdf,38.9219487,-77.50740619999999,"43260 Mossimo Sq #415, Chantilly, VA 20152, USA",SUCCESS
BLDC-2024-031788,1/3/2025,"43260 MOSSIMO SQ Unit: 413, CHANTILLY, VA 20152",permits_2025_01.pdf,38.9219487,-77.50740619999999,"43260 Mossimo Sq #413, Chantilly, VA 20152, USA",SUCCESS
BLDC-2024-031798,1/3/2025,"43260 MOSSIMO SQ Unit: 411, CHANTILLY, VA 20152",permits_2025_01.pdf,38.9219487,-77.50740619999999,"43260 Mossimo Sq #411, Chantilly, VA 20152, USA",SUCCESS
BLDC-2024-031799,1/3/2025,"43260 MOSSIMO SQ Unit: 409, CHANTILLY, VA 20152",permits_2025_01.pdf,38.9219487,-77.50740619999999,"43260 Mossimo Sq #409, Chantilly, VA 20152, USA",SUCCESS
BLDC-2024-031800,1/3/2025,"43260 MOSSIMO SQ Unit: 408, CHANTILLY, VA 20152",permits_2025_01.pdf,38.9219487,-77.50740619999999,"43260 Mossimo Sq #408, Chantilly, VA 20152, USA",SUCCESS
BLDC-2024-031829,1/3/2025,"43260 MOSSIMO SQ Unit: 305, CHANTILLY, VA 20152",permits_2025_01.pdf,38.9219487,-77.50740619999999,"43260 Mossimo Sq #305, Chantilly, VA 20152, USA",SUCCESS
BLDC-2024-031830,1/3/2025,"43260 MOSSIMO SQ Unit: 407, CHANTILLY, VA 20152",permits_2025_01.pdf,38.9219487,-77.50740619999999,"43260 Mossimo Sq #407, Chantilly, VA 20152, USA",SUCCESS
BLDC-2024-031844,1/3/2025,"43260 MOSSIMO SQ Unit: 307, CHANTILLY, VA 20152",permits_2025_01.pdf,38.9219487,-77.50740619999999,"43260 Mossimo Sq #307, Chantilly, VA 20152, USA",SUCCESS
BLDC-2024-031846,1/3/2025,"43260 MOSSIMO SQ Unit: 314, CHANTILLY, VA 20152",permits_2025_01.pdf,38.9219487,-77.50740619999999,"43260 Mossimo Sq #314, Chantilly, VA 20152, USA",SUCCESS
BLDC-2024-031847,1/3/2025,"43260 MOSSIMO SQ Unit: 404, CHANTILLY, VA 20152",permits_2025_01.pdf,38.9219487,-77.50740619999999,"43260 Mossimo Sq #404, Chantilly, VA 20152, USA",SUCCESS
BLDC-2024-031849,1/3/2025,"43260 MOSSIMO SQ Unit: 405, CHANTILLY, VA 20152",permits_2025_01.pdf,38.9219487,-77.50740619999999,"43260 Mossimo Sq #405, Chantilly, VA 20152, USA",SUCCESS
BLDC-2024-031850,1/3/2025,"43260 MOSSIMO SQ Unit: 406, CHANTILLY, VA 20152",permits_2025_01.pdf,38.9219487,-77.50740619999999,"43260 Mossimo Sq #406, Chantilly, VA 20152, USA",SUCCESS
BLDC-2024-031851,1/3/2025,"43260 MOSSIMO SQ Unit: 410, CHANTILLY, VA 20152",permits_2025_01.pdf,38.9219487,-77.50740619999999,"43260 Mossimo Sq #410, Chantilly, VA 20152, USA",SUCCESS
BLDC-2024-031852,1/3/2025,"43260 MOSSIMO SQ Unit: 412, CHANTILLY, VA 20152",permits_2025_01.pdf,38.9219487,-77.50740619999999,"43260 Mossimo Sq #412, Chantilly, VA 20152, USA",SUCCESS
BLDC-2024-031853,1/3/2025,"43260 MOSSIMO SQ Unit: 414, CHANTILLY, VA 20152",permits_2025_01.pdf,38.9219487,-77.50740619999999,"43260 Mossimo Sq #414, Chantilly, VA 20152, USA",SUCCESS
BLDC-2024-031906,1/3/2025,"43260 MOSSIMO SQ Unit: 402, CHANTILLY, VA 20152",permits_2025_01.pdf,38.9219487,-77.50740619999999,"43260 Mossimo Sq #402, Chantilly, VA 20152, USA",SUCCESS
BLDC-2024-035649,1/3/2025,"20335 CELTIC PARK DR, LEESBURG, VA 20175",permits_2025_01.pdf,39.0559404,-77.5473153,"20335 Celtic Pk Dr, Leesburg, VA 20175, USA",SUCCESS
BLDC-2024-042786,1/3/2025,"43260 MOSSIMO SQ Unit: 315, CHANTILLY, VA 20152",permits_2025_01.pdf,38.9219487,-77.50740619999999,"43260 Mossimo Sq #315, Chantilly, VA 20152, USA",SUCCESS
BLDC-2024-059735,1/3/2025,"21001 SYCOLIN RD Unit: 300, ASHBURN, VA 20147",permits_2025_01.pdf,39.0434912,-77.52381679999999,"21001 Sycolin Rd STE 300, Ashburn, VA 20147, USA",SUCCESS
BLDC-2024-062062,1/3/2025,"21351 GENTRY DR Unit: 114, STERLING, VA 20166",permits_2025_01.pdf,39.0250347,-77.4061289,"21351 Gentry Dr suite 114, Sterling, VA 20166, USA",SUCCESS
BLDR-2024-045929,1/3/2025,"41312 CANONGATE DR, LEESBURG, VA 20175",permits_2025_01.pdf,39.1268806,-77.60442499999999,"41312 Canongate Dr, Leesburg, VA 20175, USA",SUCCESS
BLDR-2024-060221,1/3/2025,"12800 TAYLORS VALLEY LN, LOVETTSVILLE, VA 20180",permits_2025_01.pdf,39.2602974,-77.57089529999999,"12800 Taylors Valley Ln, Lovettsville, VA 20180, USA",SUCCESS
BLDR-2024-060418,1/3/2025,"25412 IRON HARROW CT, ALDIE, VA 20105",permits_2025_01.pdf,38.9147486,-77.58318729999999,"25412 Iron Harrow Ct, Aldie, VA 20105, USA",SUCCESS
BLDR-2024-061206,1/3/2025,"3 CORRIEDALE PL, LOVETTSVILLE, VA 20180",permits_2025_01.pdf,39.278114,-77.64069099999999,"3 Corriedale Pl, Lovettsville, VA 20180, USA",SUCCESS
BLDR-2024-062991,1/3/2025,"42119 PICASSO SQ, ASHBURN, VA 20148",permits_2025_01.pdf,38.979855,-77.545793,"42119 Picasso Sq, Brambleton, VA 20148, USA",SUCCESS
BLDR-2024-062994,1/3/2025,"42121 PICASSO SQ, ASHBURN, VA 20148",permits_2025_01.pdf,38.979893,-77.545722,"42121 Picasso Sq, Brambleton, VA 20148, USA",SUCCESS
BLDR-2024-063001,1/3/2025,"42123 PICASSO SQ, ASHBURN, VA 20148",permits_2025_01.pdf,38.979923,-77.545653,"42123 Picasso Sq, Brambleton, VA 20148, USA",SUCCESS
BLDR-2024-063016,1/3/2025,"42125 PICASSO SQ, ASHBURN, VA 20148",permits_2025_01.pdf,38.979956,-77.545586,"42125 Picasso Sq, Brambleton, VA 20148, USA",SUCCESS
BLDR-2024-063024,1/3/2025,"42127 PICASSO SQ, ASHBURN, VA 20148",permits_2025_01.pdf,38.9799447,-77.5454749,"42127 Picasso Sq, Brambleton, VA 20148, USA",SUCCESS
BLDR-2024-063032,1/3/2025,"42129 PICASSO SQ, ASHBURN, VA 20148",permits_2025_01.pdf,38.980027,-77.545445,"42129 Picasso Sq, Brambleton, VA 20148, USA",SUCCESS
BLDR-2024-063679,1/3/2025,"35076 MCKNIGHT CT, ROUND HILL, VA 20141",permits_2025_01.pdf,39.124547,-77.7913839,"35076 McKnight Ct, Round Hill, VA 20141, USA",SUCCESS
BLDR-2024-063873,1/3/2025,"25611 RED CHERRY DR, ALDIE, VA 20105",permits_2025_01.pdf,38.910689,-77.554895,"25611 Red Cherry Dr, Aldie, VA 20105, USA",SUCCESS
BLDR-2024-063875,1/3/2025,"25609 RED CHERRY DR, ALDIE, VA 20105",permits_2025_01.pdf,38.910806,-77.554879,"25609 Red Cherry Dr, Aldie, VA 20105, USA",SUCCESS
BLDR-2024-064709,1/3/2025,"129 BELMONT DR SW, LEESBURG, VA 20175",permits_2025_01.pdf,39.11295459999999,-77.5710989,"129 Belmont Dr SW, Leesburg, VA 20175, USA",SUCCESS
BLDR-2024-065366,1/3/2025,"23453 SALLY MILL RD, MIDDLEBURG, VA 20117",permits_2025_01.pdf,38.9715525,-77.6887807,"23453 Sally Mill Rd, Middleburg, VA 20117, USA",SUCCESS
BLDR-2024-065423,1/3/2025,"231 MILES HAWK TER, PURCELLVILLE, VA 20132",permits_2025_01.pdf,39.1502375,-77.7175651,"231 Miles Hawk Terrace, Purcellville, VA 20132, USA",SUCCESS
BLDR-2025-000040,1/3/2025,"108 ALMEY CT, STERLING, VA 20164",permits_2025_01.pdf,38.9905646,-77.40613859999999,"108 Almey Ct, Sterling, VA 20164, USA",SUCCESS
BLDC-2024-058387,1/7/2025,"23844 BELMONT RIDGE RD, ASHBURN, VA 20148",permits_2025_01.pdf,38.957479,-77.535808,"23844 Belmont Ridge Rd, Ashburn, VA 20148, USA",SUCCESS
BLDC-2024-061041,1/7/2025,"44074 MERCURE CIR, STERLING, VA 20166",permits_2025_01.pdf,38.9813234,-77.4805069,"44074 Mercure Cir, Sterling, VA 20166, USA",SUCCESS
BLDR-2024-039070,1/7/2025,"44049 ABERDEEN TER, ASHBURN, VA 20147",permits_2025_01.pdf,39.0504684,-77.4783272,"44049 Aberdeen Terrace, Ashburn, VA 20147, USA",SUCCESS
BLDR-2024-058459,1/7/2025,"18294 PTOLEMY LN, LEESBURG, VA 20176",permits_2025_01.pdf,39.1099626,-77.52218100000002,"18294 Ptolemy Ln, Leesburg, VA 20176, USA",SUCCESS
BLDR-2024-060135,1/7/2025,"208 CHIANTI TER SE, LEESBURG, VA 20175",permits_2025_01.pdf,39.0971566,-77.5398907,"208 Chianti Ter SE, Leesburg, VA 20175, USA",SUCCESS
BLDR-2024-060143,1/7/2025,"212 CHIANTI TER SE, LEESBURG, VA 20175",permits_2025_01.pdf,39.0970674,-77.539973,"212 Chianti Ter SE, Leesburg, VA 20175, USA",SUCCESS
BLDR-2024-060147,1/7/2025,"214 CHIANTI TER SE, LEESBURG, VA 20175",permits_2025_01.pdf,39.0970164,-77.54002,"214 Chianti Ter SE, Leesburg, VA 20175, USA",SUCCESS
BLDR-2024-060149,1/7/2025,"42861 CATTAIL CREEK DR, LEESBURG, VA 20176",permits_2025_01.pdf,39.1077904,-77.5182827,"42861 Cattail Crk Dr, Leesburg, VA 20176, USA",SUCCESS
BLDR-2024-060249,1/7/2025,"15570 SECOND ST, WATERFORD, VA 20197",permits_2025_01.pdf,39.1855483,-77.6123535,"15570 2nd St, Waterford, VA 20197, USA",SUCCESS
BLDR-2024-060419,1/7/2025,"18400 SUGAR SNAP CIR, LEESBURG, VA 20176",permits_2025_01.pdf,39.1078353,-77.51884520000002,"18400 Sugar Snap Cir, Leesburg, VA 20176, USA",SUCCESS
BLDR-2024-060460,1/7/2025,"42811 CATTAIL CREEK DR, LEESBURG, VA 20176",permits_2025_01.pdf,39.1089352,-77.5195693,"42811 Cattail Crk Dr, Leesburg, VA 20176, USA",SUCCESS
BLDR-2024-060611,1/7/2025,"18389 SUGAR SNAP CIR, LEESBURG, VA 20176",permits_2025_01.pdf,39.1078265,-77.5198154,"18389 Sugar Snap Cir, Leesburg, VA 20176, USA",SUCCESS
BLDR-2024-060612,1/7/2025,"18401 SUGAR SNAP CIR, LEESBURG, VA 20176",permits_2025_01.pdf,39.1074275,-77.5190003,"18401 Sugar Snap Cir, Leesburg, VA 20176, USA",SUCCESS
BLDR-2024-062223,1/7/2025,"43854 KITTIWAKE DR, LEESBURG, VA 20176",permits_2025_01.pdf,39.0828521,-77.4842682,"43854 Kittiwake Dr, Leesburg, VA 20176, USA",SUCCESS
BLDR-2024-063227,1/7/2025,"20730 CITATION DR, ASHBURN, VA 20147",permits_2025_01.pdf,39.042049,-77.51628149999999,"20730 Citation Dr, Ashburn, VA 20147, USA",SUCCESS
BLDR-2024-063602,1/7/2025,"22558 FOREST RUN DR, ASHBURN, VA 20148",permits_2025_01.pdf,38.9914128,-77.5212794,"22558 Forest Run Dr, Ashburn, VA 20148, USA",SUCCESS
BLDR-2024-064953,1/7/2025,"37782 BUTTONS WAY, PURCELLVILLE, VA 20132",permits_2025_01.pdf,39.186506,-77.696187,"37782 Buttons Wy, Purcellville, VA 20132, USA",SUCCESS
BLDR-2024-065009,1/7/2025,"12274 HARPERS FERRY RD, PURCELLVILLE, VA 20132",permits_2025_01.pdf,39.276461,-77.7245015,"12274 Harpers Ferry Rd, Purcellville, VA 20132, USA",SUCCESS
BLDR-2024-065578,1/7/2025,"505 BRINDLEY PL SW, LEESBURG, VA 20175",permits_2025_01.pdf,39.0923603,-77.5943142,"505 Brindley Pl SW, Leesburg, VA 20175, USA",SUCCESS
BLDR-2025-000079,1/7/2025,"43414 LONGVIEW DR, ASHBURN, VA 20147",permits_2025_01.pdf,39.04833170000001,-77.4997285,"43414 Longview Dr, Ashburn, VA 20147, USA",SUCCESS
BLDC-2024-050430,1/8/2025,"45219 TEMPLE BAR DR, STERLING, VA 20166",permits_2025_01.pdf,39.0408386,-77.4373887,"45219 Temple Bar Dr, Sterling, VA 20166, USA",SUCCESS
BLDC-2024-050447,1/8/2025,"45219 TEMPLE BAR DR, STERLING, VA 20166",permits_2025_01.pdf,39.0408386,-77.4373887,"45219 Temple Bar Dr, Sterling, VA 20166, USA",SUCCESS
BLDC-2024-050454,1/8/2025,"45229 TEMPLE BAR DR, STERLING, VA 20166",permits_2025_01.pdf,39.0408401,-77.4371771,"45229 Temple Bar Dr, Sterling, VA 20166, USA",SUCCESS
BLDC-2024-050455,1/8/2025,"45231 TEMPLE BAR DR, STERLING, VA 20166",permits_2025_01.pdf,39.0408369,-77.4371365,"45231 Temple Bar Dr, Sterling, VA 20166, USA",SUCCESS
BLDC-2024-050456,1/8/2025,"45235 TEMPLE BAR DR, STERLING, VA 20166",permits_2025_01.pdf,39.0408356,-77.43705109999999,"45235 Temple Bar Dr, Sterling, VA 20166, USA",SUCCESS
BLDC-2024-050457,1/8/2025,"45239 TEMPLE BAR DR, STERLING, VA 20166",permits_2025_01.pdf,39.0408364,-77.4369689,"45239 Temple Bar Dr, Sterling, VA 20166, USA",SUCCESS
BLDC-2024-050458,1/8/2025,"45245 TEMPLE BAR DR, STERLING, VA 20166",permits_2025_01.pdf,39.0408345,-77.436842,"45245 Temple Bar Dr, Sterling, VA 20166, USA",SUCCESS
BLDC-2024-050459,1/8/2025,"45223 TEMPLE BAR DR, STERLING, VA 20166",permits_2025_01.pdf,39.0408406,-77.43730479999999,"45223 Temple Bar Dr, Sterling, VA 20166, USA",SUCCESS
BLDC-2024-050641,1/8/2025,"45221 TEMPLE BAR DR, STERLING, VA 20166",permits_2025_01.pdf,39.0408406,-77.437348,"45221 Temple Bar Dr, Sterling, VA 20166, USA",SUCCESS
BLDC-2024-050646,1/8/2025,"45227 TEMPLE BAR DR, STERLING, VA 20166",permits_2025_01.pdf,39.0408407,-77.4372169,"45227 Temple Bar Dr, Sterling, VA 20166, USA",SUCCESS
BLDC-2024-050647,1/8/2025,"45233 TEMPLE BAR DR, STERLING, VA 20166",permits_2025_01.pdf,39.0408363,-77.43709249999999,"45233 Temple Bar Dr, Sterling, VA 20166, USA",SUCCESS
BLDC-2024-050648,1/8/2025,"45237 TEMPLE BAR DR, STERLING, VA 20166",permits_2025_01.pdf,39.040835,-77.4370071,"45237 Temple Bar Dr, Sterling, VA 20166, USA",SUCCESS
BLDC-2024-050649,1/8/2025,"45241 TEMPLE BAR DR, STERLING, VA 20166",permits_2025_01.pdf,39.0408344,-77.4369241,"45241 Temple Bar Dr, Sterling, VA 20166, USA",SUCCESS
BLDC-2024-050650,1/8/2025,"45243 TEMPLE BAR DR, STERLING, VA 20166",permits_2025_01.pdf,39.0408325,-77.43688019999999,"45243 Temple Bar Dr, Sterling, VA 20166, USA",SUCCESS
BLDC-2024-050651,1/8/2025,"45225 TEMPLE BAR DR, STERLING, VA 20166",permits_2025_01.pdf,39.0408413,-77.4372592,"45225 Temple Bar Dr, Sterling, VA 20166, USA",SUCCESS
BLDC-2024-054029,1/8/2025,"45805 WOODLAND RD, STERLING, VA 20166",permits_2025_01.pdf,39.0176094,-77.4169418,"45805 Woodland Rd, Sterling, VA 20166, USA",SUCCESS
BLDC-2024-061346,1/8/2025,"1002 SYCOLIN RD SE, LEESBURG, VA 20175",permits_2025_01.pdf,39.1031164,-77.552255,"Sycolin Rd SE, Leesburg, VA 20175, USA",SUCCESS
BLDC-2024-064450,1/8/2025,"101 S KING ST, LEESBURG, VA 20175",permits_2025_01.pdf,39.1141702,-77.5652613,"101 S King St, Leesburg, VA 20175, USA",SUCCESS
BLDR-2024-047366,1/8/2025,"40415 THOMAS MILL RD, LEESBURG, VA 20175",permits_2025_01.pdf,39.1131929,-77.603718,"40415 Thomas Mill Rd, Leesburg, VA 20175, USA",SUCCESS
